child_frame_id: odom
frame_id: world
is_static: false
rotation:
- -0.5131631966806579
- -0.3531812447102462
- -0.39885830911604586
- -0.672932828153374
timestamp: 1321038671000000000
translation:
- 0.18682397295811093
- 0.4673974500270154
- 0.045265708625584544
---
child_frame_id: frame_0
frame_id: odom
is_static: false
rotation:
- -0.15369469404925395
- -0.39965343057633906
- 0.7200386420300956
- -0.5460763961508731
timestamp: 1321038671000000000
translation:
- 0.5780979054738888
- 0.7171285191429442
- 0.7947822052008144
---
child_frame_id: frame_1
frame_id: odom
is_static: false
rotation:
- -0.3657951307360439
- 0.08098438471669847
- 0.2572638422167613
- -0.8907585347610921
timestamp: 1321038671000000000
translation:
- 0.3510546525837914
- 0.5897710894819533
- 0.38876787884939834
---
child_frame_id: frame_2
frame_id: odom
is_static: false
rotation:
- -0.9156354544544092
- 0.15001292800719376
- -0.3682681560326944
- -0.05904575538559269
timestamp: 1321038671000000000
translation:
- 0.40728354190631055
- 0.25615456853759677
- 0.4736991643817354
---
child_frame_id: frame_3
frame_id: frame_1
is_static: false
rotation:
- -0.14973922524219122
- 0.26491952089366316
- -0.3950730259805892
- -0.8667832001232377
timestamp: 1321038671000000000
translation:
- 0.9873444751317184
- 0.8571930745198394
- 0.9604149556378955
---
child_frame_id: frame_4
frame_id: odom
is_static: false
rotation:
- 0.2769196653928978
- 0.4282459827612267
- 0.22803563714136216
- 0.8294098054406457
timestamp: 1321038671000000000
translation:
- 0.745472521533327
- 0.17162368143198048
- 0.5340543175451231
---
child_frame_id: frame_5
frame_id: odom
is_static: false
rotation:
- 0.6155807233969064
- 0.1459639623237462
- -0.7670556863219673
- 0.10667927992833934
timestamp: 1321038671000000000
translation:
- 0.8058353876972373
- 0.40618312365649434
- 0.29325480953561067
---
child_frame_id: frame_6
frame_id: frame_5
is_static: false
rotation:
- -0.6576552558986989
- 0.11271440986883734
- 0.33561574605124683
- -0.6649414238857446
timestamp: 1321038671000000000
translation:
- 0.4627558301471578
- 0.320315782145532
- 0.3383024665792841
---
child_frame_id: frame_7
frame_id: odom
is_static: false
rotation:
- 0.006428729496482405
- -0.6408990683660425
- -0.5398100830014438
- 0.5457216597264342
timestamp: 1321038671000000000
translation:
- 0.9411290659886066
- 0.5870594250432664
- 0.35304552658096267
---
child_frame_id: frame_8
frame_id: frame_1
is_static: false
rotation:
- -0.6278038210439074
- -0.29699199025074713
- -0.45879081062936417
- 0.5542283934368761
timestamp: 1321038671000000000
translation:
- 0.40668134623479635
- 0.24935839726268705
- 0.419319163836562
---
child_frame_id: frame_9
frame_id: frame_7
is_static: false
rotation:
- 0.7944005374002246
- -0.12135915145643211
- 0.3444213739921546
- -0.48535930986575865
timestamp: 1321038671000000000
translation:
- 0.610267292447878
- 0.9901949754956689
- 0.10170277773888714
---
child_frame_id: frame_10
frame_id: frame_4
is_static: false
rotation:
- -0.32976263838553066
- -0.6529321868638241
- -0.07535799105797909
- -0.6776852771500527
timestamp: 1321038671000000000
translation:
- 0.27641967040922755
- 0.9467747451881207
- 0.006143114932719684
---
child_frame_id: frame_11
frame_id: odom
is_static: false
rotation:
- -0.6406975925500559
- -0.609421841088379
- 0.2344152403538759
- -0.40393206061768294
timestamp: 1321038671000000000
translation:
- 0.49730146796680996
- 0.12125240944326265
- 0.47384129695103583
---
child_frame_id: frame_12
frame_id: frame_2
is_static: false
rotation:
- 0.0001658217692708278
- 0.42539226289900794
- -0.36071257546899377
- -0.8300167667386771
timestamp: 1321038671000000000
translation:
- 0.7073346898989351
- 0.06495292861709956
- 0.3494636425220554
---
child_frame_id: frame_13
frame_id: frame_8
is_static: false
rotation:
- 0.4002477612459889
- -0.5087501937383366
- -0.7621198307864011
- 0.012179224560139206
timestamp: 1321038671000000000
translation:
- 0.8223659829288456
- 0.9521526451324324
- 0.018483588016454444
---
child_frame_id: frame_14
frame_id: frame_13
is_static: false
rotation:
- 0.5742177110840316
- -0.11883839313896999
- -0.7651579542819983
- -0.2658660594971662
timestamp: 1321038671000000000
translation:
- 0.7171177456268331
- 0.5546634771226173
- 0.5382281832859414
---
child_frame_id: frame_15
frame_id: frame_5
is_static: false
rotation:
- 0.6182107403865033
- 0.3673205948548572
- -0.6842297273746633
- 0.12132906182378307
timestamp: 1321038671000000000
translation:
- 0.03077255347431651
- 0.3283578006135053
- 0.7617053101497435
---
child_frame_id: frame_16
frame_id: frame_12
is_static: false
rotation:
- -0.4555208571429331
- 0.43517404816840466
- 0.709577897518975
- -0.3156319119814117
timestamp: 1321038671000000000
translation:
- 0.5975835672732364
- 0.4471851856592344
- 0.9987394887567124
---
child_frame_id: frame_17
frame_id: frame_1
is_static: false
rotation:
- -0.7188658595695588
- -0.2538811585610658
- -0.5115946650579205
- 0.3962917258249085
timestamp: 1321038671000000000
translation:
- 0.8788708858665606
- 0.38110940484302513
- 0.3170139814950369
---
child_frame_id: frame_18
frame_id: frame_6
is_static: false
rotation:
- 0.4039595741741578
- -0.2920071826811692
- -0.8667752713811425
- -0.015782794992839324
timestamp: 1321038671000000000
translation:
- 0.8965850574705452
- 0.7973844093596162
- 0.4652802321935863
---
child_frame_id: frame_19
frame_id: frame_15
is_static: false
rotation:
- 0.4480200534937006
- -0.1976249629035016
- -0.025444045887212118
- -0.8715360039802031
timestamp: 1321038671000000000
translation:
- 0.9274409311676716
- 0.3274389394794015
- 0.091018695379536
---
child_frame_id: frame_11
frame_id: odom
is_static: false
rotation:
- -0.08079358319792003
- 0.3708266476474835
- 0.540756710890231
- -0.7506944611063471
timestamp: 1321038671000000000
translation:
- 0.9730950257850712
- 0.03266574647921461
- 0.3650147066726461
---
child_frame_id: frame_2
frame_id: odom
is_static: false
rotation:
- -0.6791161566927462
- 0.04856493507299037
- -0.6012994544113135
- -0.4181885447078703
timestamp: 1321038671403331279
translation:
- 0.14980637489381976
- 0.808960753708801
- 0.11198277555251412
---
child_frame_id: frame_8
frame_id: frame_1
is_static: false
rotation:
- 0.5869964593798991
- -0.54371141236253
- 0.5449112231522041
- -0.25076845021847166
timestamp: 1321038671738840579
translation:
- 0.4186351980242009
- 0.3916385634130226
- 0.2567130585400009
---
child_frame_id: frame_5
frame_id: odom
is_static: false
rotation:
- 0.7378118843209869
- -0.5050934973181196
- -0.323301742251963
- -0.3098227973834572
timestamp: 1321038672160268068
translation:
- 0.9461379246829925
- 0.4442153088840666
- 0.26886014132196556
---
child_frame_id: frame_12
frame_id: frame_2
is_static: false
rotation:
- -0.09533958269692927
- 0.3935403669196317
- 0.6828294084400803
- 0.6080956689085254
timestamp: 1321038672492086410
translation:
- 0.49843002755562904
- 0.16275533784701446
- 0.5974152287570224
---
child_frame_id: frame_10
frame_id: frame_4
is_static: false
rotation:
- 0.12363407668189083
- -0.7364371986721439
- 0.6040961570761738
- -0.2782852861736321
timestamp: 1321038673122842073
translation:
- 0.3991879042960197
- 0.17801772582681308
- 0.007785110378848881
---
child_frame_id: frame_15
frame_id: frame_5
is_static: false
rotation:
- -0.16279002955030838
- -0.5184142366101774
- -0.7210477137298626
- -0.42992590068968245
timestamp: 1321038673239092588
translation:
- 0.47108410953371793
- 0.8132084245874365
- 0.07856947795158986
---
child_frame_id: odom
frame_id: world
is_static: false
rotation:
- 0.46161819742477567
- 0.6440957270385658
- 0.38613221360737854
- 0.4721771360746177
timestamp: 1321038673779123783
translation:
- 0.020772183334724192
- 0.28505966645950875
- 0.1748097105925348
---
child_frame_id: odom
frame_id: world
is_static: false
rotation:
- -0.1793127328330352
- -0.38965330055496916
- 0.903245493575615
- -0.012838518057429926
timestamp: 1321038673876591205
translation:
- 0.01908234889548588
- 0.599035686827104
- 0.3237371900332645
---
child_frame_id: frame_5
frame_id: odom
is_static: false
rotation:
- 0.11930357030273014
- -0.39814005945153375
- 0.4435037889601634
- -0.7940752737309792
timestamp: 1321038674800349235
translation:
- 0.35434619394426325
- 0.3108267334255588
- 0.6547620287362534
---
child_frame_id: frame_2
frame_id: odom
is_static: false
rotation:
- 0.7038489220024073
- -0.11259374818950946
- -0.6039073088053867
- -0.356672546232706
timestamp: 1321038675486072301
translation:
- 0.488808267507743
- 0.38315381938911997
- 0.05623503069405145
---
child_frame_id: frame_2
frame_id: odom
is_static: false
rotation:
- -0.11430503112989032
- -0.7081332702965965
- 0.43564985686783486
- -0.5437746165172452
timestamp: 1321038676320923089
translation:
- 0.9424661058123903
- 0.35135355527623735
- 0.5459541423171629
---
child_frame_id: frame_0
frame_id: odom
is_static: false
rotation:
- 0.1084351960874867
- -0.687153837636087
- 0.7183731412515141
- 0.0012006664393093226
timestamp: 1321038677212079286
translation:
- 0.4799740864929316
- 0.3685718102398692
- 0.8344833044373351
---
child_frame_id: odom
frame_id: world
is_static: false
rotation:
- -0.5605023077396847
- -0.5887312388908376
- 0.08396725921682124
- 0.576352488284871
timestamp: 1321038677680814504
translation:
- 0.9008790183107418
- 0.5538717255539337
- 0.8066357248345642
---
child_frame_id: frame_3
frame_id: frame_1
is_static: false
rotation:
- 0.35058950980255565
- 0.029735509633105842
- -0.5683759192782851
- 0.743741628166548
timestamp: 1321038677809527158
translation:
- 0.6027101446476659
- 0.8661293323884881
- 0.5252124011599086
---
child_frame_id: frame_6
frame_id: frame_5
is_static: false
rotation:
- -0.18232831540140632
- 0.5089231156132782
- -0.5635698661202819
- 0.6246140038443956
timestamp: 1321038677992777824
translation:
- 0.7004877476348738
- 0.4054715528090864
- 0.04626587958008155
---
child_frame_id: frame_3
frame_id: frame_1
is_static: false
rotation:
- -0.5740330618266366
- 0.08863679705822093
- 0.6763090402637552
- -0.4530294076489018
timestamp: 1321038678167636156
translation:
- 0.5619663647507084
- 0.03301838045102201
- 0.9926758161252568
---
child_frame_id: frame_15
frame_id: frame_5
is_static: false
rotation:
- -0.5951597501405665
- 0.5504741286823401
- -0.19307718844377542
- -0.5527063458715519
timestamp: 1321038678509728670
translation:
- 0.37151639449840557
- 0.43822691506594713
- 0.2878163639665374
---
child_frame_id: frame_15
frame_id: frame_5
is_static: false
rotation:
- 0.9228136628683323
- -0.16856035434131209
- 0.34159519257582155
- 0.05757668779072466
timestamp: 1321038679057755947
translation:
- 0.09134694585155201
- 0.5445694858941155
- 0.18662168241509158
---
child_frame_id: frame_18
frame_id: frame_6
is_static: false
rotation:
- 0.697420110935096
- 0.34912862829602737
- -0.6030022289939652
- -0.16763860413318418
timestamp: 1321038679868185281
translation:
- 0.9252472935756316
- 0.13268191590131095
- 0.8645333808859902
---
child_frame_id: odom
frame_id: world
is_static: false
rotation:
- 0.4632323509698217
- 0.6803029865624339
- 0.50075661072331
- 0.26804188535769585
timestamp: 1321038680274021625
translation:
- 0.2234273641976552
- 0.8242226608552788
- 0.30883817017648263
---
child_frame_id: frame_17
frame_id: frame_1
is_static: false
rotation:
- -0.25013167089683347
- 0.5607619380363528
- -0.6988447993769187
- 0.36687346926141495
timestamp: 1321038680598506689
translation:
- 0.13524381186185697
- 0.8834491679147657
- 0.4021308150449807
---
child_frame_id: frame_9
frame_id: frame_7
is_static: false
rotation:
- 0.09280881156971808
- 0.8686505826383851
- 0.33256348110756445
- 0.3552945549971588
timestamp: 1321038681259319305
translation:
- 0.2374252537472119
- 0.7925870018836221
- 0.04267001762900191
---
child_frame_id: odom
frame_id: world
is_static: false
rotation:
- 0.4172204672267027
- 0.6662016435463949
- 0.09948691376605191
- 0.6100859003882323
timestamp: 1321038681567316770
translation:
- 0.26773288523852656
- 0.940855732366699
- 0.6119095447115235
---
child_frame_id: frame_11
frame_id: odom
is_static: false
rotation:
- -0.6499862285305514
- -0.5227383694502784
- 0.008670071757496865
- 0.5515318029640847
timestamp: 1321038681729004144
translation:
- 0.7303704519749846
- 0.7397157559944715
- 0.42689275601493126
---
child_frame_id: frame_16
frame_id: frame_12
is_static: false
rotation:
- 0.03232583309683657
- -0.7291707814341639
- 0.6211105260623362
- -0.28545879988512196
timestamp: 1321038682390540122
translation:
- 0.25556319248659765
- 0.569007955284969
- 0.19746883565627582
---
child_frame_id: frame_15
frame_id: frame_5
is_static: false
rotation:
- 0.20343953780968613
- -0.05300926820706705
- -0.49811566338618035
- 0.841239061045835
timestamp: 1321038682947996139
translation:
- 0.3793370312529646
- 0.269131365213069
- 0.1028637256998467
---
child_frame_id: frame_9
frame_id: frame_7
is_static: false
rotation:
- 0.046673093123809434
- 0.7341802828852707
- -0.3605122740795189
- 0.5734386059891451
timestamp: 1321038682990971326
translation:
- 0.672779410505143
- 0.6010107943456573
- 0.569045838436406
---
child_frame_id: frame_6
frame_id: frame_5
is_static: false
rotation:
- -0.3083856463388309
- 0.5800894082136372
- -0.5617069063141588
- 0.5028716764836837
timestamp: 1321038683663403034
translation:
- 0.1768431124434492
- 0.17993275229032613
- 0.8783648525231019
---
child_frame_id: frame_15
frame_id: frame_5
is_static: false
rotation:
- -0.8871881993654065
- -0.1351163063547702
- 0.21847873111846508
- -0.383285437647554
timestamp: 1321038684105961799
translation:
- 0.3827904360449633
- 0.038371581643125596
- 0.09439533191225413
---
child_frame_id: frame_16
frame_id: frame_12
is_static: false
rotation:
- -0.7109219200998776
- -0.005610874814656691
- 0.13204321783597162
- -0.6907410008308755
timestamp: 1321038684435016870
translation:
- 0.7410596031682349
- 0.9204831134924124
- 0.9293683946182528
---
child_frame_id: frame_11
frame_id: odom
is_static: false
rotation:
- 0.5463212482426061
- 0.36318137619534757
- -0.31775987270195805
- 0.6845882302551874
timestamp: 1321038685044599294
translation:
- 0.3363037115752028
- 0.3457016242128811
- 0.5580724203529629
---
child_frame_id: frame_18
frame_id: frame_6
is_static: false
rotation:
- 0.4933025496396019
- -0.6866124844368665
- 0.4565522298780551
- -0.27708473817205687
timestamp: 1321038685880654096
translation:
- 0.12908908493569682
- 0.8876496332212037
- 0.9774846194646941
---
child_frame_id: frame_0
frame_id: odom
is_static: false
rotation:
- 0.8590718120980722
- 0.06892857369879325
- 0.3732555439877224
- -0.3434017650927473
timestamp: 1321038686803504943
translation:
- 0.8217372245957981
- 0.6402055907393673
- 0.02680611552887624
---
child_frame_id: frame_16
frame_id: frame_12
is_static: false
rotation:
- 0.10280818766321385
- 0.5940509243397636
- -0.631560267613241
- 0.48750959396997423
timestamp: 1321038687388169050
translation:
- 0.1315087836484624
- 0.5772487198355174
- 0.22053133291599325
---
child_frame_id: frame_12
frame_id: frame_2
is_static: false
rotation:
- 0.6725841082265979
- 0.3671576812807928
- -0.3407814002879661
- -0.5446961461726317
timestamp: 1321038687436354875
translation:
- 0.8380539722098806
- 0.8577112855017749
- 0.23676338988663526
---
child_frame_id: frame_3
frame_id: frame_1
is_static: false
rotation:
- -0.18573690188510245
- 0.07798698509016702
- 0.6416676435890892
- -0.7400557199329624
timestamp: 1321038688183674812
translation:
- 0.1004105980178629
- 0.9998822455547103
- 0.7840855727655247
---
child_frame_id: frame_9
frame_id: frame_7
is_static: false
rotation:
- -0.44754841676795876
- 0.23189475789148536
- 0.34485318317183206
- -0.7918342743069396
timestamp: 1321038688399521112
translation:
- 0.42312566230769655
- 0.384454531185786
- 0.23089609850274706
---
child_frame_id: frame_15
frame_id: frame_5
is_static: false
rotation:
- -0.7668744840293048
- -0.22073846441662648
- 0.3075630813212253
- 0.5182499465315655
timestamp: 1321038689015065908
translation:
- 0.9655733797245495
- 0.12366157096618102
- 0.9039023440141769
---
child_frame_id: frame_9
frame_id: frame_7
is_static: false
rotation:
- 0.17853733893790175
- -0.36144921080322656
- 0.9142927067962008
- -0.03934123681296696
timestamp: 1321038689391962289
translation:
- 0.5853332117618646
- 0.03364403102635605
- 0.8922450815902447
---
child_frame_id: frame_16
frame_id: frame_12
is_static: false
rotation:
- -0.2553631120286592
- 0.8973791918641464
- -0.34576362493803814
- 0.09973857174633023
timestamp: 1321038689763553380
translation:
- 0.5971889306262195
- 0.29543100099362696
- 0.3701290188426206
---
child_frame_id: frame_13
frame_id: frame_8
is_static: false
rotation:
- -0.5905500205518825
- 0.19704299455531377
- -0.577361802835735
- -0.5282784115872192
timestamp: 1321038690433382034
translation:
- 0.7342874175910574
- 0.33018025826399444
- 0.31817646261280874
---
child_frame_id: frame_12
frame_id: frame_2
is_static: false
rotation:
- -0.013591338665435564
- -0.8007232565443279
- 0.5881174712555736
- 0.11302823517279996
timestamp: 1321038690726113319
translation:
- 0.5940780938318073
- 0.7636753228349759
- 0.8234649269389451
---
child_frame_id: frame_1
frame_id: odom
is_static: false
rotation:
- -0.7599673352832439
- -0.5878334027142672
- 0.2525314837555737
- -0.1145835488543634
timestamp: 1321038691641276359
translation:
- 0.4908969375667199
- 0.29016892369618164
- 0.7335768780029261
---
child_frame_id: frame_2
frame_id: odom
is_static: false
rotation:
- 0.42575255323118993
- -0.3397412776038009
- 0.17494541780296158
- -0.8201857890130791
timestamp: 1321038691794659614
translation:
- 0.5899182186362946
- 0.7041800405994811
- 0.32034401306879423
---
child_frame_id: frame_8
frame_id: frame_1
is_static: false
rotation:
- 0.2651277425939748
- 0.23594833998526052
- 0.7669535666846717
- -0.5346193856519642
timestamp: 1321038691875415802
translation:
- 0.6014001189108767
- 0.4659872786811995
- 0.07340646950482832
---
child_frame_id: frame_6
frame_id: frame_5
is_static: false
rotation:
- 0.4058120311085815
- -0.18696610903331254
- -0.8641638752646862
- -0.23147584359494447
timestamp: 1321038692336241960
translation:
- 0.07315417205460184
- 0.10019053167535807
- 0.32184208650698853
---
child_frame_id: frame_7
frame_id: odom
is_static: false
rotation:
- 0.03272600835072834
- -0.24323467800483714
- -0.790426391724523
- -0.56124149798341
timestamp: 1321038692926517963
translation:
- 0.8706218029841744
- 0.3552292303535485
- 0.07338215553426874
---
child_frame_id: odom
frame_id: world
is_static: false
rotation:
- -0.8157023687304418
- 0.06865275663607805
- 0.5693655217977491
- 0.0757584796692138
timestamp: 1321038693138198375
translation:
- 0.49366227278011166
- 0.01864440421515645
- 0.8469482622166292
---
child_frame_id: frame_13
frame_id: frame_8
is_static: false
rotation:
- -0.5937614196306059
- 0.4953170825738115
- 0.595813646674048
- 0.21705866189993003
timestamp: 1321038693827903032
translation:
- 0.768847319184808
- 0.9637113878611665
- 0.917939000022998
---
child_frame_id: frame_15
frame_id: frame_5
is_static: false
rotation:
- 0.6179185010199205
- -0.31377383330801045
- 0.502463140937392
- -0.516965665811398
timestamp: 1321038694366492271
translation:
- 0.055623818423932936
- 0.7692768905260999
- 0.5604729297819921
---
child_frame_id: frame_9
frame_id: frame_7
is_static: false
rotation:
- -0.8188834342486877
- -0.13827771352543305
- -0.5316421289816551
- 0.16633051959008288
timestamp: 1321038694673133850
translation:
- 0.6071350482828516
- 0.708794907616277
- 0.4037021162149895
---
child_frame_id: frame_16
frame_id: frame_12
is_static: false
rotation:
- -0.5002568853712055
- 0.2686120309917162
- 0.6404008150321989
- 0.5171821937685994
timestamp: 1321038694797318696
translation:
- 0.4119347398227885
- 0.39224844360279665
- 0.09331222431246222
---
child_frame_id: frame_17
frame_id: frame_1
is_static: false
rotation:
- 0.7307142897957483
- -0.18046462578881806
- 0.4970351948166279
- 0.4317929603881864
timestamp: 1321038695202221632
translation:
- 0.48236430498251837
- 0.5334091564239888
- 0.7908871818448603
---
child_frame_id: odom
frame_id: world
is_static: false
rotation:
- 0.7146786581263493
- 0.06889139871997035
- -0.2928108497346088
- 0.6314667030642417
timestamp: 1321038696179408550
translation:
- 0.4400977638850754
- 0.5881416900078467
- 0.6324173991717242
---
child_frame_id: frame_19
frame_id: frame_15
is_static: false
rotation:
- 0.10510056412199272
- -0.044407670954469076
- -0.7604761316472692
- -0.6392635476675044
timestamp: 1321038697098679304
translation:
- 0.49503593982466454
- 0.11985805598674337
- 0.9778843692740588
---
child_frame_id: frame_14
frame_id: frame_13
is_static: false
rotation:
- 0.46828383411972196
- -0.5478619334218726
- 0.6465508277969721
- -0.2500591523708553
timestamp: 1321038697409370899
translation:
- 0.10296987266510405
- 0.005256132438757666
- 0.5331786734320738
---
child_frame_id: odom
frame_id: world
is_static: false
rotation:
- -0.013543794398340555
- -0.5745448682737591
- 0.5432198800127245
- -0.6120677429276482
timestamp: 1321038698262174606
translation:
- 0.32031321458951745
- 0.6284210400526872
- 0.2376532891203691
---
child_frame_id: frame_19
frame_id: frame_15
is_static: false
rotation:
- 0.13922079712242647
- 0.19907516575251266
- 0.5589074282885951
- -0.792848746377917
timestamp: 1321038698638886213
translation:
- 0.05840058176943708
- 0.10811689170802408
- 0.684793176684046
---
child_frame_id: frame_11
frame_id: odom
is_static: false
rotation:
- -0.9552362370681606
- -0.12259650464559745
- -0.0013428214510690188
- 0.2692434312496655
timestamp: 1321038699342912435
translation:
- 0.7804303720185425
- 0.09358137179445858
- 0.33420221266605776
---
child_frame_id: frame_18
frame_id: frame_6
is_static: false
rotation:
- -0.8398981453714658
- 0.09588487735810937
- -0.07109064327354088
- -0.5294556791031206
timestamp: 1321038699601532220
translation:
- 0.6941464586434875
- 0.5619897850441701
- 0.6328738389285742
---
child_frame_id: frame_3
frame_id: frame_1
is_static: false
rotation:
- -0.44127731348463917
- -0.4775041935304227
- -0.27711983364124027
- -0.7074381072343299
timestamp: 1321038700250364780
translation:
- 0.31586983169733307
- 0.3709481464993971
- 0.9788962577534384
---
child_frame_id: frame_6
frame_id: frame_5
is_static: false
rotation:
- 0.38556112819113175
- -0.7604310193213177
- 0.06200297995974145
- -0.5188862223628943
timestamp: 1321038700690559148
translation:
- 0.761617749639519
- 0.7193698547680989
- 0.762224852401145
---
child_frame_id: frame_1
frame_id: odom
is_static: false
rotation:
- -0.2793087920853697
- -0.4156089226782805
- 0.5767686118014689
- -0.6454407722592502
timestamp: 1321038701146636247
translation:
- 0.926105040587306
- 0.946998741120812
- 0.3523068028778077
---
child_frame_id: frame_15
frame_id: frame_5
is_static: false
rotation:
- 0.9154559484364674
- -0.30749525682548096
- -0.19595805025871674
- -0.17025720554772952
timestamp: 1321038701882331848
translation:
- 0.8445571841600799
- 0.549260764426942
- 0.39465561358466816
---
child_frame_id: frame_4
frame_id: odom
is_static: false
rotation:
- -0.17976379797429146
- 0.3523526811747655
- -0.7130949939692854
- -0.5788161146536586
timestamp: 1321038702527697801
translation:
- 0.3094361261918459
- 0.8897521732847465
- 0.45868466149432974
---
child_frame_id: odom
frame_id: world
is_static: false
rotation:
- 0.19681355323103958
- 0.42567253851876563
- -0.3838945107033041
- -0.7954195873043569
timestamp: 1321038702538562536
translation:
- 0.03746147427812907
- 0.8485032061809413
- 0.680727125552476
---
child_frame_id: frame_7
frame_id: odom
is_static: false
rotation:
- -0.6452445710847281
- 0.5821598895983611
- 0.48622641386938853
- 0.09128625791554439
timestamp: 1321038703468034744
translation:
- 0.5638832883800345
- 0.15843852388151558
- 0.5759310743122623
---
child_frame_id: frame_14
frame_id: frame_13
is_static: false
rotation:
- 0.6082327269358664
- -0.42403496382957817
- -0.37918261961395644
- -0.5535953759894545
timestamp: 1321038703756095886
translation:
- 0.326716311843785
- 0.3339204758117531
- 0.24397528099406762
---
child_frame_id: frame_6
frame_id: frame_5
is_static: false
rotation:
- -0.4340337562536319
- -0.48396164152802196
- -0.5351044281957597
- 0.5394989146301911
timestamp: 1321038703962375640
translation:
- 0.13671652392929878
- 0.3310198557839614
- 0.23351899080898875
---
child_frame_id: frame_11
frame_id: odom
is_static: false
rotation:
- -0.7775505808818324
- 0.1084641029533948
- -0.47392512895097444
- 0.3988052214924506
timestamp: 1321038704447625160
translation:
- 0.280922743892957
- 0.568022485903889
- 0.5370854066765243
---
child_frame_id: frame_0
frame_id: odom
is_static: false
rotation:
- -0.1468671851865142
- -0.7757669599403244
- 0.484755808038706
- 0.3763342402081935
timestamp: 1321038704895674467
translation:
- 0.6404294975866831
- 0.08703623022000384
- 0.44503115122315906
---
child_frame_id: frame_9
frame_id: frame_7
is_static: false
rotation:
- -0.2949092862783584
- -0.2192969876100458
- -0.20650050710051873
- 0.9068047665617873
timestamp: 1321038705449070453
translation:
- 0.4005604441856214
- 0.5453107719795658
- 0.8655938337199102
---
child_frame_id: frame_10
frame_id: frame_4
is_static: false
rotation:
- -0.49196557404676333
- 0.2810016248561135
- 0.8015908974225328
- 0.19094500242321416
timestamp: 1321038705768372297
translation:
- 0.48018480191448154
- 0.42252265446524306
- 0.983678069522424
---
child_frame_id: frame_3
frame_id: frame_1
is_static: false
rotation:
- 0.942391050110449
- 0.17117273184706114
- -0.05636139513852406
- 0.28181979646891114
timestamp: 1321038706302717924
translation:
- 0.9610156922285849
- 0.10219187689174158
- 0.521374626187821
---
child_frame_id: frame_16
frame_id: frame_12
is_static: false
rotation:
- -0.5041160245320969
- -0.29853414023607305
- 0.5429369938816047
- 0.6016342922392882
timestamp: 1321038706308195352
translation:
- 0.18786207697248114
- 0.7266530569248811
- 0.13019835580837613
---
child_frame_id: odom
frame_id: world
is_static: false
rotation:
- 0.10395241700915699
- 0.5390119099999611
- -0.6692805162382975
- -0.5007231235522743
timestamp: 1321038707067510366
translation:
- 0.9126114790496997
- 0.5780816443543332
- 0.7563534456230162
---
child_frame_id: frame_12
frame_id: frame_2
is_static: false
rotation:
- 0.10946219281220107
- 0.5701078538553048
- -0.4993158839231176
- 0.6431785999077696
timestamp: 1321038708042449474
translation:
- 0.8952643281014669
- 0.05922916726872551
- 0.9858567963405708
---
child_frame_id: odom
frame_id: world
is_static: false
rotation:
- -0.27190292711954295
- 0.5204875358230436
- 0.5946130239407353
- -0.5491783635912243
timestamp: 1321038708192960262
translation:
- 0.4339070658127434
- 0.4132897036389219
- 0.16470624963535352
---
child_frame_id: frame_2
frame_id: odom
is_static: false
rotation:
- -0.5131313243331284
- 0.6809854578691701
- 0.41227279451598614
- 0.3209146195810127
timestamp: 1321038708748988866
translation:
- 0.9172637195317708
- 0.41894833969514944
- 0.46867234329178054
---
child_frame_id: frame_15
frame_id: frame_5
is_static: false
rotation:
- 0.07089515736660754
- 0.4068565439699789
- -0.7836617291275484
- 0.46402146889081514
timestamp: 1321038709497566699
translation:
- 0.1392227225179843
- 0.2500045240436364
- 0.6131773471481337
---
child_frame_id: frame_5
frame_id: odom
is_static: false
rotation:
- 0.2614446359562811
- -0.1708688702132385
- -0.4079228119672281
- -0.8579332788734149
timestamp: 1321038710116497755
translation:
- 0.5164926826083368
- 0.7532710234798408
- 0.20287706464499033
---
child_frame_id: frame_12
frame_id: frame_2
is_static: false
rotation:
- 0.24443283000987662
- 0.841324423178141
- -0.3284718527772101
- 0.35289098672314867
timestamp: 1321038710575039148
translation:
- 0.16921923587304688
- 0.9385211715453601
- 0.7382813275459459
---
child_frame_id: frame_17
frame_id: frame_1
is_static: false
rotation:
- -0.14737702169560316
- -0.4964283890221058
- -0.23385496905067762
- 0.8228916827258355
timestamp: 1321038711386653661
translation:
- 0.37519955688181095
- 0.5212751704617645
- 0.5880619153452197
---
child_frame_id: frame_2
frame_id: odom
is_static: false
rotation:
- 0.5363819512175709
- 0.62219647118971
- -0.28323245699408706
- -0.49491951765130093
timestamp: 1321038712297739744
translation:
- 0.8585751343251189
- 0.9108191847299342
- 0.4936248881798655
---
child_frame_id: frame_7
frame_id: odom
is_static: false
rotation:
- 0.602427852657853
- 0.20508643878298327
- 0.6016088217364238
- 0.4827909077212136
timestamp: 1321038712842268228
translation:
- 0.28068805434250765
- 0.5251327162401039
- 0.35894181081514975
---
child_frame_id: frame_8
frame_id: frame_1
is_static: false
rotation:
- -0.31825341700397736
- 0.6884249318617657
- -0.18265489609822214
- -0.6256381259863912
timestamp: 1321038713487545013
translation:
- 0.5715379893208065
- 0.7502610629725515
- 0.4433962242544486
---
child_frame_id: frame_19
frame_id: frame_15
is_static: false
rotation:
- 0.5759143520951765
- -0.6197913597731778
- 0.23877655154467747
- -0.4766204861666567
timestamp: 1321038713598350048
translation:
- 0.23884311566336514
- 0.13262522957878586
- 0.1140948801110444
---
child_frame_id: frame_12
frame_id: frame_2
is_static: false
rotation:
- -0.5477304728363266
- 0.48033531159459036
- 0.6683695570250949
- 0.15017141140676687
timestamp: 1321038713750385761
translation:
- 0.5183999876350526
- 0.008088844778507576
- 0.428132504226613
---
child_frame_id: frame_18
frame_id: frame_6
is_static: false
rotation:
- 0.7779463808371823
- -0.09917327018900983
- -0.37687825158602206
- 0.49287612490747645
timestamp: 1321038714653205871
translation:
- 0.44550820227148835
- 0.6474053877631086
- 0.4295498592913858
---
child_frame_id: frame_15
frame_id: frame_5
is_static: false
rotation:
- -0.6458468614120522
- -0.6607881963594686
- 0.19241543952209
- 0.3304800898537198
timestamp: 1321038714993377447
translation:
- 0.29582997144593903
- 0.06876098674641651
- 0.4020896272194583
---
child_frame_id: frame_2
frame_id: odom
is_static: false
rotation:
- -0.273160431588414
- 0.7271673166317011
- -0.5460364910991975
- 0.31377575213065567
timestamp: 1321038715340236186
translation:
- 0.5115387418054739
- 0.46981805912388974
- 0.7150306398296851
---
child_frame_id: frame_1
frame_id: odom
is_static: false
rotation:
- -0.08341013515053627
- -0.12910747371939277
- 0.061843512840030146
- -0.9861791873202205
timestamp: 1321038715939923048
translation:
- 0.2662648761749318
- 0.9819485716759452
- 0.5341269939499528
---
child_frame_id: frame_19
frame_id: frame_15
is_static: false
rotation:
- 0.5239990413191076
- -0.6487053155960821
- 0.1711222538394045
- -0.5247128666756381
timestamp: 1321038716367275953
translation:
- 0.12844640985513378
- 0.5095197670655726
- 0.5380007577319754
---
child_frame_id: odom
frame_id: world
is_static: false
rotation:
- -0.5813171522619147
- 0.3121403492099742
- -0.19114938383173585
- 0.7267053625382992
timestamp: 1321038717120237588
translation:
- 0.22545420803255212
- 0.35057627941298153
- 0.30092264325464624
---
child_frame_id: frame_0
frame_id: odom
is_static: false
rotation:
- 0.5050618593925794
- -0.7197828006946301
- 0.44320014266139524
- -0.1743527216765589
timestamp: 1321038717987346649
translation:
- 0.5723854829983509
- 0.7342459651137703
- 0.12772842165152776
---
child_frame_id: frame_14
frame_id: frame_13
is_static: false
rotation:
- 0.6156228491949447
- -0.23475310969806087
- -0.7390248476248412
- -0.1405053722434454
timestamp: 1321038718640875577
translation:
- 0.22180508436274182
- 0.5205519235629539
- 0.00462558665704238
---
child_frame_id: frame_0
frame_id: odom
is_static: false
rotation:
- -0.330631286438545
- 0.5031152441332842
- 0.7870184212342266
- 0.13475907459864872
timestamp: 1321038718826724290
translation:
- 0.834014747396645
- 0.23210341669072565
- 0.2146204426644902
---
child_frame_id: frame_10
frame_id: frame_4
is_static: false
rotation:
- 0.03562453420705607
- -0.3026650117316674
- -0.05335691543721997
- -0.9509352358657371
timestamp: 1321038719451525211
translation:
- 0.1779053007257272
- 0.37953551287100373
- 0.7845028915452177
---
child_frame_id: frame_3
frame_id: frame_1
is_static: false
rotation:
- -0.8953576508453456
- -0.2763788320040172
- 0.28086499890429456
- -0.20751932604769605
timestamp: 1321038720020077705
translation:
- 0.05831009221326544
- 0.30446349320421773
- 0.0008747204012922172
---
child_frame_id: odom
frame_id: world
is_static: false
rotation:
- 0.07636250362556829
- 0.7295468143437558
- 0.6757905573250353
- -0.07236944349123448
timestamp: 1321038720164070844
translation:
- 0.289256973908541
- 0.527099274246989
- 0.07052341813907603
---
child_frame_id: frame_7
frame_id: odom
is_static: false
rotation:
- 0.5673283199518763
- 0.33470290183129653
- 0.48369425422275936
- -0.5763266550474475
timestamp: 1321038720788471698
translation:
- 0.30789737405506856
- 0.8205137451760035
- 0.8278782411581304
---
child_frame_id: frame_0
frame_id: odom
is_static: false
rotation:
- -0.5994489523965745
- -0.4141561110375632
- -0.37018254497328584
- -0.5762816607857586
timestamp: 1321038721581544160
translation:
- 0.44356155454907753
- 0.48253958887591164
- 0.4947959956646544
---
child_frame_id: frame_18
frame_id: frame_6
is_static: false
rotation:
- 0.5679374280654758
- 0.4417697783488448
- -0.31791438781555265
- 0.617427714602971
timestamp: 1321038722141611337
translation:
- 0.9289464626538769
- 0.6823446324520626
- 0.5632335081078816
---
child_frame_id: odom
frame_id: world
is_static: false
rotation:
- 0.34379781216305844
- 0.6990931216069353
- -0.6248749277265281
- 0.0510215285201408
timestamp: 1321038722560837745
translation:
- 0.7815305004117582
- 0.6972526463693617
- 0.3541864979297724
---
child_frame_id: odom
frame_id: world
is_static: false
rotation:
- -0.3846550392736192
- 0.3039426302343033
- -0.8277980800950447
- 0.27278144526089426
timestamp: 1321038722772641181
translation:
- 0.327169037993687
- 0.39147701471092167
- 0.5524747638134471
---
child_frame_id: frame_2
frame_id: odom
is_static: false
rotation:
- -0.47397286884376305
- 0.778129902826243
- -0.19729693200049037
- -0.3618528631237126
timestamp: 1321038723207614898
translation:
- 0.5828437612949352
- 0.9402387150626604
- 0.4626391402296123
---
child_frame_id: frame_8
frame_id: frame_1
is_static: false
rotation:
- -0.2007367250140946
- 0.5822286701978896
- -0.2229309832939735
- 0.7556562178119062
timestamp: 1321038724126735210
translation:
- 0.9792575121285185
- 0.564008809970728
- 0.5452539806303335
---
child_frame_id: frame_15
frame_id: frame_5
is_static: false
rotation:
- -0.09187747510571576
- 0.6961665326256243
- -0.35662351813412335
- -0.6162226502927775
timestamp: 1321038724331193447
translation:
- 0.3818791492135377
- 0.11058917061889961
- 0.6092282600921077
---
child_frame_id: frame_3
frame_id: frame_1
is_static: false
rotation:
- -0.6617152157628468
- 0.5779751780576243
- -0.4748258716346639
- -0.05116696594062069
timestamp: 1321038725075246334
translation:
- 0.3598884238109423
- 0.6426020961526199
- 0.992852293686455
---
child_frame_id: frame_4
frame_id: odom
is_static: false
rotation:
- -0.5575940573279994
- 0.16573774276797928
- 0.1386454781974764
- 0.8014969115536678
timestamp: 1321038725602599859
translation:
- 0.7767982230318841
- 0.09589717557425814
- 0.5597347820269888
---
child_frame_id: frame_9
frame_id: frame_7
is_static: false
rotation:
- -0.6929588665182727
- 0.09617988406014166
- 0.5596743909169614
- -0.44420942737363966
timestamp: 1321038726582489967
translation:
- 0.6914611501800172
- 0.06117175855255297
- 0.5860112343700753
---
child_frame_id: frame_12
frame_id: frame_2
is_static: false
rotation:
- -0.8388219530315058
- 0.3121897807360446
- 0.44462689249051335
- 0.034959954099229314
timestamp: 1321038727552483320
translation:
- 0.25152739611141883
- 0.39484480727158877
- 0.5463790898306158
---
child_frame_id: frame_15
frame_id: frame_5
is_static: false
rotation:
- 0.5687895775408448
- -0.5854930937958157
- -0.042631171033413684
- 0.5760719025040462
timestamp: 1321038727943085193
translation:
- 0.9029159518676952
- 0.07624498923954148
- 0.09724892614603198
---
child_frame_id: frame_7
frame_id: odom
is_static: false
rotation:
- 0.6603991556422825
- 0.3999989867143789
- -0.34504614880337525
- 0.5336824159089274
timestamp: 1321038728053793430
translation:
- 0.6518648378987811
- 0.854635083904597
- 0.3052192801742145
---
child_frame_id: frame_8
frame_id: frame_1
is_static: false
rotation:
- 0.16438427251357085
- 0.6615393950650929
- 0.5117208664388198
- -0.5229581193348072
timestamp: 1321038728667634487
translation:
- 0.9218702074150574
- 0.22280605689637945
- 0.9595777931366193
---
child_frame_id: frame_1
frame_id: odom
is_static: false
rotation:
- -0.38498690072132447
- -0.6352541272995806
- -0.037380260469221625
- 0.6684609159472905
timestamp: 1321038729442876100
translation:
- 0.12753806563468928
- 0.7650878455179441
- 0.19252898702131827
---
child_frame_id: frame_0
frame_id: odom
is_static: false
rotation:
- 0.7916509044049647
- -0.007131945908439521
- 0.4499511679601124
- 0.4132577009006501
timestamp: 1321038729520349979
translation:
- 0.9313669480836694
- 0.401297864132538
- 0.27349614782513676
---
child_frame_id: frame_0
frame_id: odom
is_static: false
rotation:
- -0.36688981913313407
- -0.7349626689559002
- 0.006982348328498547
- 0.5702394082045674
timestamp: 1321038730243285655
translation:
- 0.660022783405495
- 0.45214828866779
- 0.03096126371986241
---
child_frame_id: frame_2
frame_id: odom
is_static: false
rotation:
- 0.7058229648201207
- 0.302396955424864
- 0.5397320060274821
- 0.345049830244644
timestamp: 1321038730803327560
translation:
- 0.9855516891917984
- 0.36339401566434537
- 0.6738807757521755
---
child_frame_id: frame_15
frame_id: frame_5
is_static: false
rotation:
- -0.8779422929121554
- -0.26803730383719265
- 0.39449882387755764
- 0.04176137003331472
timestamp: 1321038731612582921
translation:
- 0.953815468845935
- 0.7128129569094792
- 0.7883387995154216
---
child_frame_id: frame_9
frame_id: frame_7
is_static: false
rotation:
- 0.5659328028782635
- 0.16085385032202007
- 0.6057032303466535
- 0.5356955275252563
timestamp: 1321038732467729091
translation:
- 0.2251127500001383
- 0.5947724264195202
- 0.6522983929199507
---
child_frame_id: frame_9
frame_id: frame_7
is_static: false
rotation:
- -0.25649266030805046
- -0.7531147646667442
- 0.43675331802730455
- 0.4198525998980995
timestamp: 1321038733157668590
translation:
- 0.0566364936333027
- 0.7621267115423588
- 0.22067086864247554
---
child_frame_id: frame_4
frame_id: odom
is_static: false
rotation:
- 0.608668069852854
- 0.42073756172167986
- 0.2531086383856966
- 0.6232488283764643
timestamp: 1321038733582349300
translation:
- 0.9237207411626105
- 0.43566725472987844
- 0.901171520719201
---
child_frame_id: frame_2
frame_id: odom
is_static: false
rotation:
- -0.7731273259451998
- 0.5448266220294073
- 0.21934770120975822
- -0.23942572079633503
timestamp: 1321038734075482368
translation:
- 0.3527220723792077
- 0.12952507760607834
- 0.9638384967924326
---
child_frame_id: frame_3
frame_id: frame_1
is_static: false
rotation:
- 0.31958512832034514
- 0.6355617843966701
- 0.10284445234436732
- -0.6952334734410996
timestamp: 1321038734683132410
translation:
- 0.069081499650544
- 0.08890729825095722
- 0.41150009589279024
---
child_frame_id: frame_12
frame_id: frame_2
is_static: false
rotation:
- -0.6113573376763037
- 0.7902326851712997
- -0.022624854894302937
- 0.0355334335142438
timestamp: 1321038734806876897
translation:
- 0.20983916722493323
- 0.33794033323149497
- 0.4697350293317617
---
child_frame_id: odom
frame_id: world
is_static: false
rotation:
- 0.22485787474497168
- 0.26315289595533675
- 0.8875275400508266
- 0.3041124054799847
timestamp: 1321038735798191785
translation:
- 0.49975864648320023
- 0.9751190171958276
- 0.3958394835612826
---
child_frame_id: frame_19
frame_id: frame_15
is_static: false
rotation:
- 0.5358792972321311
- 0.6852301276324916
- 0.4820035017138287
- -0.10471712046443805
timestamp: 1321038736693372726
translation:
- 0.20201089232570457
- 0.07200017822777305
- 0.5622239885001498
---
child_frame_id: frame_10
frame_id: frame_4
is_static: false
rotation:
- -0.7199818806021673
- -0.19765832840864223
- 0.21701606709929064
- 0.6288571407211848
timestamp: 1321038737056403875
translation:
- 0.7463067385098201
- 0.6837031281409482
- 0.17035497265285304
---
child_frame_id: frame_15
frame_id: frame_5
is_static: false
rotation:
- -0.32771753095573514
- -0.012166384413799892
- -0.8835370965936422
- 0.3343880947902441
timestamp: 1321038737401765584
translation:
- 0.7904379989304834
- 0.9002476514480288
- 0.7131401915884077
---
child_frame_id: frame_15
frame_id: frame_5
is_static: false
rotation:
- 0.2347402398283476
- -0.26770106676778355
- -0.5056509679774766
- 0.7858436595405994
timestamp: 1321038737917846679
translation:
- 0.7365528263285729
- 0.08343824898057883
- 0.5329872918788193
---
child_frame_id: frame_14
frame_id: frame_13
is_static: false
rotation:
- 0.8291999951457757
- -0.29178599234249175
- -0.13692275283593747
- 0.45666230682943576
timestamp: 1321038738126578330
translation:
- 0.4457831048199886
- 0.6579468764831791
- 0.8768027292853925
---
child_frame_id: frame_4
frame_id: odom
is_static: false
rotation:
- -0.524043094815754
- 0.45636111620996295
- 0.5275545632932309
- 0.48867120759874116
timestamp: 1321038738979419708
translation:
- 0.8314203507191533
- 0.8156855378769541
- 0.4418322457278828
---
child_frame_id: frame_17
frame_id: frame_1
is_static: false
rotation:
- -0.512081700599745
- 0.3832716803360671
- 0.5943178315094283
- 0.48750534983030835
timestamp: 1321038739090923786
translation:
- 0.4189926504583805
- 0.3241962167008623
- 0.5591361133099106
---
child_frame_id: frame_13
frame_id: frame_8
is_static: false
rotation:
- -0.15236621641998702
- 0.9511248329052957
- 0.2502162133545558
- -0.0976623514934919
timestamp: 1321038739874863147
translation:
- 0.45749995450167313
- 0.9482500640611637
- 0.5832238988000805
---
child_frame_id: frame_12
frame_id: frame_2
is_static: false
rotation:
- -0.4863860473343529
- -0.09096874244771128
- 0.5108785477956117
- -0.702962595205601
timestamp: 1321038740819043159
translation:
- 0.10016599714582963
- 0.22078491994537586
- 0.24413572691819607
---
child_frame_id: frame_1
frame_id: odom
is_static: false
rotation:
- -0.44484213672240297
- -0.6234330171126633
- -0.5101592586659229
- -0.39138763057547526
timestamp: 1321038741165123701
translation:
- 0.044069657527580075
- 0.8779558470548517
- 0.04401331390433716
---
child_frame_id: frame_0
frame_id: odom
is_static: false
rotation:
- -0.7426631298664016
- 0.25613927876221304
- -0.28338208577844903
- -0.5500352160290006
timestamp: 1321038741759932518
translation:
- 0.132893755704384
- 0.023682653244508467
- 0.7445978039190737
---
child_frame_id: frame_15
frame_id: frame_5
is_static: false
rotation:
- -0.6447533884268276
- -0.2900382195583312
- 0.6991097334351997
- 0.10684792896318436
timestamp: 1321038742484788656
translation:
- 0.6577892341527997
- 0.36079943913341395
- 0.09671531614044038
---
child_frame_id: frame_17
frame_id: frame_1
is_static: false
rotation:
- -0.6669646920797103
- 0.03206463391122577
- 0.7149253105623052
- -0.20739276527532927
timestamp: 1321038743250996112
translation:
- 0.37305514466852896
- 0.9816902131011207
- 0.9241275428923167
---
child_frame_id: frame_3
frame_id: frame_1
is_static: false
rotation:
- 0.724673082320142
- -0.5583050181643867
- 0.36824019766452737
- -0.16596260806904203
timestamp: 1321038743823893547
translation:
- 0.7488461711207229
- 0.049814561013863834
- 0.48338425588360256
---
child_frame_id: frame_9
frame_id: frame_7
is_static: false
rotation:
- 0.7261505518245577
- 0.5659033081244017
- -0.38023780246423833
- 0.08875829829326214
timestamp: 1321038744240956068
translation:
- 0.37462126292712783
- 0.38863245500426
- 0.7785525002776831
---
child_frame_id: frame_8
frame_id: frame_1
is_static: false
rotation:
- -0.6289576843657956
- -0.300527671427693
- -0.5990055549138258
- -0.39406559754163323
timestamp: 1321038744969770431
translation:
- 0.08424462044126835
- 0.4376266805380322
- 0.7268706440811301
---
child_frame_id: frame_9
frame_id: frame_7
is_static: false
rotation:
- -0.6047206436498987
- 0.28467358175646235
- -0.06259604278067617
- 0.7411852875103491
timestamp: 1321038745922990798
translation:
- 0.2880572762868536
- 0.029260161076603897
- 0.35701589390199095
---
child_frame_id: frame_11
frame_id: odom
is_static: false
rotation:
- 0.42158789334692903
- 0.38414351224180676
- 0.05084984866837993
- 0.819824190345851
timestamp: 1321038746446109533
translation:
- 0.029153613153466984
- 0.9166061233686575
- 0.8697659157702761
---
child_frame_id: frame_2
frame_id: odom
is_static: false
rotation:
- 0.5020639424226969
- 0.7240073209793767
- 0.1358165023085774
- -0.45309940916746805
timestamp: 1321038747252843856
translation:
- 0.7314857427455745
- 0.5262424958264422
- 0.5613414974324876
---
child_frame_id: frame_17
frame_id: frame_1
is_static: false
rotation:
- -0.5329614456407149
- -0.7257407231221604
- 0.39216465669114026
- -0.18830661779396674
timestamp: 1321038747749027729
translation:
- 0.07887852986284494
- 0.8214987120599501
- 0.47578572855076096
---
child_frame_id: frame_19
frame_id: frame_15
is_static: false
rotation:
- 0.5995699318695367
- -0.5840291067518344
- 0.2467583515527144
- -0.48840169451344123
timestamp: 1321038748128229856
translation:
- 0.7317823690060595
- 0.8179338589634686
- 0.8774160404709216
---
child_frame_id: frame_17
frame_id: frame_1
is_static: false
rotation:
- 0.487231148470944
- -0.7893521329187457
- -0.3140842698282497
- -0.20218825302862473
timestamp: 1321038748884738445
translation:
- 0.5679033070331541
- 0.0753357001218341
- 0.11983089386412438
---
child_frame_id: odom
frame_id: world
is_static: false
rotation:
- 0.3173753660370331
- -0.5697430703310468
- -0.6476473753199287
- 0.3939779030400293
timestamp: 1321038749833608865
translation:
- 0.3254254271235272
- 0.35736747266585867
- 0.42618604307155916
---
child_frame_id: frame_17
frame_id: frame_1
is_static: false
rotation:
- 0.2934157031669404
- 0.0305768066966865
- 0.36526197070019206
- -0.8829246722045406
timestamp: 1321038750601667881
translation:
- 0.44080232611781345
- 0.3614402953654434
- 0.23714351391160582
---
child_frame_id: frame_17
frame_id: frame_1
is_static: false
rotation:
- -0.01889493837959442
- 0.6212375826718369
- -0.32264204824505344
- 0.7138690047087914
timestamp: 1321038750606899738
translation:
- 0.4204193402552926
- 0.31996315077395276
- 0.5370998442190857
---
child_frame_id: frame_18
frame_id: frame_6
is_static: false
rotation:
- -0.7308562091128014
- 0.3074187959117943
- 0.4471223155283969
- 0.4140344435888548
timestamp: 1321038750695505619
translation:
- 0.3019401716014726
- 0.6260328005774111
- 0.22193479473772515
---
child_frame_id: frame_18
frame_id: frame_6
is_static: false
rotation:
- 0.20800807699882587
- 0.4234223129430456
- -0.8783536474626049
- 0.07707823813729867
timestamp: 1321038750783340215
translation:
- 0.1421277094658534
- 0.7430558637419551
- 0.8284978572806483
---
child_frame_id: frame_11
frame_id: odom
is_static: false
rotation:
- -0.7299109154103133
- -0.14106395764807395
- 0.6614534211803733
- 0.09904739787758472
timestamp: 1321038751678995132
translation:
- 0.38632350308381125
- 0.20942649985773798
- 0.4193412162079069
---
child_frame_id: frame_10
frame_id: frame_4
is_static: false
rotation:
- -0.8954112706170338
- -0.0468590490477037
- 0.2839413163316288
- -0.3397355072025824
timestamp: 1321038752445113182
translation:
- 0.3021795169096886
- 0.9429582318729135
- 0.4088069670122403
---
child_frame_id: frame_19
frame_id: frame_15
is_static: false
rotation:
- -0.18069552381703036
- 0.8896456734433748
- 0.4069143742692938
- -0.10149086367256092
timestamp: 1321038752684762716
translation:
- 0.48299513541626815
- 0.8612860647336054
- 0.04762739409341621
---
child_frame_id: frame_13
frame_id: frame_8
is_static: false
rotation:
- -0.1598543975001588
- 0.7297617719373746
- 0.3300613506066824
- 0.5770215183633772
timestamp: 1321038752801326990
translation:
- 0.18828763447128127
- 0.7063712228849242
- 0.6825569549206955
---
child_frame_id: frame_7
frame_id: odom
is_static: false
rotation:
- -0.07948692955032985
- 0.9411467620447775
- 0.1540490118743658
- 0.2901611660161012
timestamp: 1321038753086444377
translation:
- 0.49129774568642093
- 0.8103633547234809
- 0.03094550788610928
---
child_frame_id: frame_12
frame_id: frame_2
is_static: false
rotation:
- 0.5517153889087735
- 0.6716675511293203
- -0.4328459390729999
- 0.23899209909366315
timestamp: 1321038754061713933
translation:
- 0.8293207976472077
- 0.16601370884791755
- 0.8200873013899592
---
child_frame_id: frame_1
frame_id: odom
is_static: false
rotation:
- -0.5014514017664371
- 0.6392828608970471
- -0.25172322071151715
- -0.5258320412302608
timestamp: 1321038754750852108
translation:
- 0.3257508153632771
- 0.5353967295080855
- 0.10397370800889583
---
child_frame_id: frame_12
frame_id: frame_2
is_static: false
rotation:
- 0.4292329715381328
- 0.5828091532049422
- -0.641751414536077
- -0.2534712390509562
timestamp: 1321038755579119682
translation:
- 0.27843663857098544
- 0.7386231459762086
- 0.2121510323471727
---
child_frame_id: frame_6
frame_id: frame_5
is_static: false
rotation:
- 0.15027817113119613
- 0.82968990769542
- -0.5375355143487998
- 0.009311238564216048
timestamp: 1321038755859035491
translation:
- 0.25030010287934357
- 0.12779021563521475
- 0.9205808193313768
---
child_frame_id: frame_13
frame_id: frame_8
is_static: false
rotation:
- 0.7122191244889526
- 0.07979302890182355
- -0.5413245409299837
- -0.4397098277703207
timestamp: 1321038756088734149
translation:
- 0.9986714263352897
- 0.3406751942422346
- 0.28168692274750295
---
child_frame_id: frame_14
frame_id: frame_13
is_static: false
rotation:
- 0.5049562169413209
- -0.5108525598618088
- 0.4525031150767971
- 0.5284787714759618
timestamp: 1321038756377631425
translation:
- 0.3421520427449807
- 0.7945074951290179
- 0.8517957841637617
---
child_frame_id: frame_8
frame_id: frame_1
is_static: false
rotation:
- -0.13073921209073885
- -0.9038692162261358
- -0.09564402907849823
- 0.3959544394021554
timestamp: 1321038757085586786
translation:
- 0.8982844086815919
- 0.8162283736346855
- 0.041335717756178614
---
child_frame_id: frame_8
frame_id: frame_1
is_static: false
rotation:
- -0.514690442830667
- -0.20558073644608796
- -0.36287870972893843
- -0.7490990260883517
timestamp: 1321038758023243665
translation:
- 0.22322379018333616
- 0.22723317240880492
- 0.6985052108804547
---
child_frame_id: frame_10
frame_id: frame_4
is_static: false
rotation:
- 0.22665522780441533
- 0.6455708421231096
- 0.26640233952115233
- -0.6788928405919776
timestamp: 1321038758140287160
translation:
- 0.9960292603299287
- 0.022535116147358036
- 0.13415919611957616
---
child_frame_id: frame_10
frame_id: frame_4
is_static: false
rotation:
- -0.7522189822525712
- 0.01063464890074567
- 0.4389362930438007
- -0.4913129731959358
timestamp: 1321038758438061714
translation:
- 0.684785763046061
- 0.5969047766892257
- 0.07658181822196697
---
child_frame_id: frame_0
frame_id: odom
is_static: false
rotation:
- -0.2637470407219244
- 0.8112945666926338
- 0.41034980362899176
- -0.3222602414619077
timestamp: 1321038758714377641
translation:
- 0.06235402969857806
- 0.4567515752054231
- 0.9690753150144499
---
child_frame_id: frame_1
frame_id: odom
is_static: false
rotation:
- 0.7652111628068397
- 0.009224232981385097
- -0.5855007704365998
- 0.2674988554365377
timestamp: 1321038759495515823
translation:
- 0.35747078117192777
- 0.75310603347619
- 0.8051116480133339
---
child_frame_id: frame_10
frame_id: frame_4
is_static: false
rotation:
- -0.49228598861600237
- -0.4438534945194733
- 0.18787350637198927
- 0.7248117868927844
timestamp: 1321038759712417602
translation:
- 0.6081634429376342
- 0.2407543383986489
- 0.4674362903855608
---
child_frame_id: frame_12
frame_id: frame_2
is_static: false
rotation:
- 0.41559300023559553
- 0.20676990098896258
- 0.22007130336075217
- 0.8579611224509481
timestamp: 1321038759895568132
translation:
- 0.4407439015259019
- 0.543167467310183
- 0.5384583397851179
---
child_frame_id: frame_9
frame_id: frame_7
is_static: false
rotation:
- 0.13704554905041982
- -0.060086064222058234
- 0.7112226929001183
- 0.6868554895141158
timestamp: 1321038760817703962
translation:
- 0.8241728592224673
- 0.4421135394435529
- 0.6518548425058427
---
child_frame_id: frame_5
frame_id: odom
is_static: false
rotation:
- 0.7114023192301919
- -0.6027441908933071
- 0.179911804462617
- 0.3134292953016388
timestamp: 1321038761755790948
translation:
- 0.17741805398763832
- 0.3769947800371042
- 0.2598184121742928
---
child_frame_id: frame_14
frame_id: frame_13
is_static: false
rotation:
- -0.7487323095084895
- 0.6336323646549614
- 0.06660477744060257
- -0.18295835258859763
timestamp: 1321038761941470146
translation:
- 0.912074033464741
- 0.607979059443251
- 0.30786906991925045
---
child_frame_id: frame_15
frame_id: frame_5
is_static: false
rotation:
- -0.7970474588198393
- 0.5160968654735659
- -0.12775722610809873
- 0.2864218305478145
timestamp: 1321038762352257013
translation:
- 0.7272758686398831
- 0.8489637635514096
- 0.506326821707127
---
child_frame_id: frame_13
frame_id: frame_8
is_static: false
rotation:
- 0.45615171862238735
- -0.7029931264542528
- 0.48382310283346197
- -0.2522726281634977
timestamp: 1321038763263935327
translation:
- 0.5612899412994823
- 0.7389938927497952
- 0.42560035135976904
---
child_frame_id: frame_3
frame_id: frame_1
is_static: false
rotation:
- -0.3977455541219649
- -0.7097155660450489
- 0.19196735877045157
- 0.5488632094213127
timestamp: 1321038763899545431
translation:
- 0.28817324270962863
- 0.9355122490860178
- 0.6237606650351109
---
child_frame_id: frame_17
frame_id: frame_1
is_static: false
rotation:
- 0.0730854684395422
- -0.377553661594904
- -0.4926695055406492
- 0.7806334000217936
timestamp: 1321038764658302783
translation:
- 0.5368490572659448
- 0.4075993195537322
- 0.561505485966485
---
child_frame_id: frame_8
frame_id: frame_1
is_static: false
rotation:
- -0.24605623752028022
- 0.31488707549815187
- 0.7378500179855624
- -0.5439483510594454
timestamp: 1321038765156147003
translation:
- 0.22092400366468656
- 0.25678309127381493
- 0.5982917962850474
---
child_frame_id: frame_16
frame_id: frame_12
is_static: false
rotation:
- -0.8185827002748868
- -0.14501437629131128
- 0.457608145123946
- -0.31541715076345866
timestamp: 1321038765388080120
translation:
- 0.9689867451257468
- 0.0489520004776941
- 0.9444789273925969
---
child_frame_id: frame_6
frame_id: frame_5
is_static: false
rotation:
- 0.5745581088732454
- -0.388405554213021
- 0.38050523932510116
- -0.611751475544296
timestamp: 1321038766201110839
translation:
- 0.5763265840292557
- 0.58728090363226
- 0.752943264725032
---
child_frame_id: frame_11
frame_id: odom
is_static: false
rotation:
- -0.13758248353163477
- 0.723969187338662
- -0.6553216601574733
- -0.16581072865746008
timestamp: 1321038766760417938
translation:
- 0.9769961525321395
- 0.6980366242070637
- 0.04055489916663946
---
child_frame_id: frame_5
frame_id: odom
is_static: false
rotation:
- 0.3817860015798392
- -0.6205529715791497
- 0.6014013406462361
- 0.32782599947361696
timestamp: 1321038767353245496
translation:
- 0.7955903998614725
- 0.8059101863914886
- 0.9035113642988695
---
child_frame_id: frame_3
frame_id: frame_1
is_static: false
rotation:
- -0.4450585907922603
- 0.7488435628705964
- 0.2834535467101054
- 0.40101154093958497
timestamp: 1321038768242872238
translation:
- 0.7365153408642633
- 0.8783295930841337
- 0.6364702153659794
---
child_frame_id: frame_0
frame_id: odom
is_static: false
rotation:
- 0.5288902372135551
- 0.36198464133321356
- 0.4913288804179544
- 0.5897780664676276
timestamp: 1321038768389263868
translation:
- 0.30973162559720846
- 0.9459871065193762
- 0.17669736039327666
---
child_frame_id: frame_7
frame_id: odom
is_static: false
rotation:
- 0.22459968512457337
- 0.8167544221023304
- 0.5094940903265144
- 0.15127117154497227
timestamp: 1321038769376310586
translation:
- 0.715821277277852
- 0.030079172966608225
- 0.417561595882577
---
child_frame_id: frame_12
frame_id: frame_2
is_static: false
rotation:
- 0.10458976622853151
- -0.7075662769890924
- 0.6950657542090519
- -0.07276360212261299
timestamp: 1321038770141635656
translation:
- 0.22705412277749693
- 0.6696453064664751
- 0.7546765500038775
---
child_frame_id: frame_2
frame_id: odom
is_static: false
rotation:
- 0.31274781277890845
- -0.6196190365399363
- 0.6728993732564936
- 0.2558661537412635
timestamp: 1321038770852922201
translation:
- 0.4531105208051779
- 0.8168898633523498
- 0.12459624942110714
---
child_frame_id: frame_18
frame_id: frame_6
is_static: false
rotation:
- -0.6436856806812697
- -0.7405008561730577
- 0.00262418590493376
- 0.1931847306108726
timestamp: 1321038771084924936
translation:
- 0.8072799721423153
- 0.11589267186097352
- 0.030716864991399473
---
child_frame_id: frame_3
frame_id: frame_1
is_static: false
rotation:
- 0.8070773067296897
- -0.11102819807501274
- 0.5798960194428833
- 0.004423440794836054
timestamp: 1321038771447100639
translation:
- 0.6686960299002677
- 0.8881935365346035
- 0.6028352142722307
---
child_frame_id: frame_14
frame_id: frame_13
is_static: false
rotation:
- -0.4246645499136749
- 0.3354897358717509
- 0.5027365635718182
- 0.6740642438368304
timestamp: 1321038772058853387
translation:
- 0.613367057427928
- 0.8348723001157832
- 0.09467037963147584
---
child_frame_id: frame_6
frame_id: frame_5
is_static: false
rotation:
- 0.5280004077713697
- 0.6689872436087598
- -0.4667739737444553
- 0.23620688964725728
timestamp: 1321038772265326261
translation:
- 0.1997243246044429
- 0.8520787868256264
- 0.8077872543775638
---
child_frame_id: frame_5
frame_id: odom
is_static: false
rotation:
- -0.28860575129023625
- -0.24279096172221445
- -0.896474461538815
- -0.23257860829597363
timestamp: 1321038772723728656
translation:
- 0.36577721364974713
- 0.2015469153925291
- 0.7117657825791245
---
child_frame_id: frame_13
frame_id: frame_8
is_static: false
rotation:
- 0.3155769209497874
- 0.46579742802624297
- 0.5108196716899062
- 0.6500055584551606
timestamp: 1321038773275971889
translation:
- 0.6753838069894791
- 0.39141619736715305
- 0.5092359522674029
---
child_frame_id: frame_9
frame_id: frame_7
is_static: false
rotation:
- 0.8175379650705915
- -0.46587162532307685
- -0.18392493081026884
- -0.28419522201034453
timestamp: 1321038773919367313
translation:
- 0.9337537766037289
- 0.8586591512815989
- 0.20657559391005398
---
child_frame_id: frame_3
frame_id: frame_1
is_static: false
rotation:
- 0.7223134174322415
- -0.32361371026870767
- -0.18294105182301398
- -0.5831552667012164
timestamp: 1321038774075992345
translation:
- 0.5463826082394417
- 0.7804130801575492
- 0.2491829301155568
---
child_frame_id: frame_6
frame_id: frame_5
is_static: false
rotation:
- -0.766367592707407
- -0.3116141846131352
- -0.02672953186233225
- 0.5611264072579059
timestamp: 1321038774231361627
translation:
- 0.7211923412978412
- 0.3308697028374552
- 0.5717756116762351
---
child_frame_id: frame_3
frame_id: frame_1
is_static: false
rotation:
- 0.17555793529532654
- 0.42063511388662844
- -0.8463986516543632
- -0.2754175644328098
timestamp: 1321038774939163208
translation:
- 0.5612074133842281
- 0.22646988515650723
- 0.9877648703158454
---
child_frame_id: frame_8
frame_id: frame_1
is_static: false
rotation:
- -0.4074791540709823
- 0.5310165102887366
- -0.4122026519606563
- -0.618119064998784
timestamp: 1321038775074558734
translation:
- 0.3109388860397625
- 0.49549371851980295
- 0.018775208739119864
---
child_frame_id: frame_17
frame_id: frame_1
is_static: false
rotation:
- 0.6867921141623555
- 0.6285991782267607
- 0.26599804616406414
- 0.2498493636052405
timestamp: 1321038776011310577
translation:
- 0.04960696324705849
- 0.5567422112555068
- 0.8629441066372888
---
child_frame_id: frame_10
frame_id: frame_4
is_static: false
rotation:
- -0.3528255389584642
