child_frame_id: world
frame_id: frame_19
rotation:
- 0.10286910659843196
- 0.7529772024815067
- -0.6164038506537494
- 0.2061299889632626
timestamp: 1321038966832701445
translation:
- -0.036250637751501114
- 1.009683218592508
- 2.809025130853591
---
child_frame_id: frame_0
frame_id: frame_16
rotation:
- 0.7567320686777944
- -0.0921387454570864
- 0.4356398703556788
- -0.4786281763297137
timestamp: 1321038672677613974
translation:
- 0.7061888447166651
- -1.5366702980370723
- 0.04634123067137899
---
child_frame_id: frame_8
frame_id: frame_14
rotation:
- 0.4878508114110762
- -0.3286742978574706
- 0.5397422113463753
- 0.6022068888881775
timestamp: 1321039117927125216
translation:
- 1.7104747755380905
- 1.7024892352721208
- -2.0565423749944816
---
child_frame_id: frame_10
frame_id: frame_11
rotation:
- 0.15724759069731392
- -0.23474771159027485
- 0.9412435386871799
- -0.18500623773985153
timestamp: 1321039149169287443
translation:
- 0.9729980649121123
- -0.6434340737364754
- 0.576509510756551
---
child_frame_id: frame_16
frame_id: frame_3
rotation:
- 0.6973826286247551
- 0.6462121168069515
- 0.24731588608629726
- 0.18682136353654857
timestamp: 1321038958249597073
translation:
- -0.8386461821820884
- -0.8312245502939396
- -0.8478660185862351
---
child_frame_id: frame_13
frame_id: frame_6
rotation:
- -0.7852746687393065
- 0.12282570563723086
- 0.06137865840270789
- 0.6037302385699863
timestamp: 1321039016535488367
translation:
- 1.0383373560281128
- -0.6868632417484961
- -0.6701662911867989
---
child_frame_id: frame_16
frame_id: odom
rotation:
- 0.24810805457238647
- -0.6689532554620429
- -0.32241964716461835
- 0.6220848064253647
timestamp: 1321038822950874567
translation:
- 0.9466371483547624
- 1.74604339007626
- -0.708871464907803
---
child_frame_id: frame_16
frame_id: odom
rotation:
- 0.24810805457238647
- -0.6689532554620429
- -0.32241964716461835
- 0.6220848064253647
timestamp: 1321038822950874567
translation:
- 0.9466371483547624
- 1.74604339007626
- -0.708871464907803
---
child_frame_id: frame_12
frame_id: frame_18
rotation:
- 0.33749691576219754
- 0.7122933117841143
- -0.551832455564688
- -0.2724243212785333
timestamp: 1321038990497623920
translation:
- 2.5174932414635416
- -1.9756808225031999
- 0.8152688526782567
---
child_frame_id: frame_4
frame_id: frame_14
rotation:
- 0.43226293199191995
- -0.0437165098137353
- 0.8895340662469972
- 0.14130381941595618
timestamp: 1321038820585304260
translation:
- 1.5857112315857511
- -1.5167937206110191
- 0.3790931320011381
---
child_frame_id: frame_16
frame_id: frame_6
rotation:
- -0.08330951324519822
- 0.15538984530415886
- 0.9685572329251687
- 0.17552893643937628
timestamp: 1321038828089769363
translation:
- -1.5799314513817697
- -0.119017275839644
- 2.004763634306027
---
child_frame_id: frame_13
frame_id: frame_11
rotation:
- -0.5298063097426565
- -0.1426655645201751
- 0.6557587364263725
- 0.518586820559003
timestamp: 1321038953111672640
translation:
- -0.2650240703068323
- -0.874382510860068
- 0.39849540724382304
---
child_frame_id: frame_12
frame_id: frame_7
rotation:
- -0.46210343948094196
- 0.6947221979144989
- -0.3204538443929731
- 0.4484761003202909
timestamp: 1321038724644459963
translation:
- 0.21353361583184668
- -0.935257540479163
- -1.5280440971068936
---
child_frame_id: frame_4
frame_id: frame_10
rotation:
- 0.4768143278533473
- 0.6980932569297037
- 0.32679967306312496
- -0.42251139046051045
timestamp: 1321039024096011400
translation:
- 0.20428506710113048
- 0.8503388928967345
- 2.3360507175331886
---
child_frame_id: frame_1
frame_id: frame_13
rotation:
- 0.22684261724033364
- 0.6032530769819064
- 0.030005440727599336
- 0.7640208280159384
timestamp: 1321038855779657841
translation:
- 0.7379589187465462
- -0.43563715671488396
- 0.8030313938096797
---
child_frame_id: frame_14
frame_id: frame_17
rotation:
- -0.021084929952954228
- 0.8991682527411862
- 0.3677647383446276
- -0.2362223025489952
timestamp: 1321038952711291313
translation:
- -0.6015220862745219
- -0.6742433161188625
- -0.7369565354811594
---
child_frame_id: frame_3
frame_id: frame_6
rotation:
- -0.3436286098253654
- 0.4778081754272759
- 0.16808353737816695
- 0.790801271159061
timestamp: 1321038797868147612
translation:
- -0.8953254020965338
- -1.6144207740952632
- 0.5233264788933986
---
child_frame_id: frame_3
frame_id: frame_6
rotation:
- -0.3436286098253654
- 0.4778081754272759
- 0.16808353737816695
- 0.790801271159061
timestamp: 1321038797868147612
translation:
- -0.8953254020965338
- -1.6144207740952632
- 0.5233264788933986
---
child_frame_id: frame_6
frame_id: frame_2
rotation:
- -0.5808079260879696
- 0.7279237403076686
- -0.22646972427672943
- -0.285483178621627
timestamp: 1321038692954774380
translation:
- -0.6700403338360866
- 0.6450738833163455
- 0.18157569653519173
---
child_frame_id: frame_11
frame_id: frame_16
rotation:
- 0.7055738244230058
- 0.020767563572823753
- 0.1766565652256924
- 0.68594952041313
timestamp: 1321039096001055956
translation:
- -1.5264489814337092
- -0.8661173107378594
- -0.5764069620973571
---
child_frame_id: frame_11
frame_id: frame_16
rotation:
- 0.7055738244230058
- 0.020767563572823753
- 0.1766565652256924
- 0.68594952041313
timestamp: 1321039096001055956
translation:
- -1.5264489814337092
- -0.8661173107378594
- -0.5764069620973571
---
child_frame_id: frame_16
frame_id: frame_10
rotation:
- 0.0023070401626712872
- 0.38825167852194553
- 0.8688987007099559
- 0.30703478564346764
timestamp: 1321038696731940508
translation:
- 1.2737225668696683
- 1.1779433929078764
- 0.8993840904480399
---
child_frame_id: frame_12
frame_id: frame_6
rotation:
- -0.42862879484945426
- 0.09640480974756914
- 0.2586170365961526
- 0.8602910538100833
timestamp: 1321038958045914412
translation:
- -0.9328257588161549
- -1.5640881879463024
- 0.7032793355015518
---
child_frame_id: frame_15
frame_id: world
rotation:
- -0.5509301570974949
- 0.8113168873722224
- -0.12066359946650522
- -0.1538868611316928
timestamp: 1321038987101884842
translation:
- -0.2566499016477038
- -0.4245594035016097
- 3.3607664077647685
---
child_frame_id: frame_0
frame_id: frame_16
rotation:
- -0.08042379418566685
- 0.09609787408685241
- 0.06285640168795896
- 0.9901243783947606
timestamp: 1321038785536204576
translation:
- 0.5055868626817916
- 0.8907417775911837
- 0.5676928928169751
---
child_frame_id: frame_1
frame_id: frame_18
rotation:
- 0.24782351343991638
- 0.8107877310106255
- 0.4648254209780695
- -0.25523340189226384
timestamp: 1321039040125075102
translation:
- 0.6007836351094435
- 0.690734673726036
- 0.923865227027219
---
child_frame_id: frame_1
frame_id: frame_18
rotation:
- 0.24782351343991638
- 0.8107877310106255
- 0.4648254209780695
- -0.25523340189226384
timestamp: 1321039040125075102
translation:
- 0.6007836351094435
- 0.690734673726036
- 0.923865227027219
---
child_frame_id: frame_19
frame_id: world
rotation:
- -0.11004155927805073
- 0.0986903270128511
- -0.5301199701030411
- 0.834939454022687
timestamp: 1321038931849828720
translation:
- 0.07197419313453168
- 2.227846837570266
- -0.601023887700521
---
child_frame_id: frame_6
frame_id: frame_19
rotation:
- -0.30189878480867544
- 0.4796754045543001
- 0.7210489729919313
- -0.3985686999050411
timestamp: 1321039095179640532
translation:
- -1.0285511312129731
- 2.134094044719968
- -0.19259667125083002
---
child_frame_id: odom
frame_id: frame_9
rotation:
- 0.30186478736308736
- -0.28955119764240755
- -0.4932263630114732
- 0.7627355432419287
timestamp: 1321038962825977087
translation:
- -2.491191919046449
- 2.292263415529632
- -0.800990258555466
---
child_frame_id: frame_18
frame_id: frame_3
rotation:
- 0.07017257552961861
- 0.5986645234380588
- 0.5245135316249817
- 0.6013003851341784
timestamp: 1321038962108204365
translation:
- 0.8520884860803877
- -0.2714991687006558
- 0.2429096910709542
---
child_frame_id: frame_6
frame_id: frame_0
rotation:
- -0.20816788211191656
- 0.354963454043072
- 0.6231491822385011
- 0.6650956140483402
timestamp: 1321038733694161415
translation:
- 1.2973303236773865
- 0.3769119865071519
- 0.09598615439300395
---
child_frame_id: frame_10
frame_id: world
rotation:
- 0.18205170267998727
- 0.7261074999271376
- 0.6601271957569358
- 0.06210605061476388
timestamp: 1321038884852074385
translation:
- 0.4612688035480269
- -1.1596996516499867
- 0.6411497059604383
---
child_frame_id: frame_7
frame_id: frame_4
rotation:
- -0.12561205250478638
- 0.5307906098432884
- 0.7954644486011584
- -0.26404403378864655
timestamp: 1321038747435759068
translation:
- -0.7089052362959568
- 0.5990690848594742
- -0.10359606223209167
---
child_frame_id: frame_7
frame_id: frame_5
rotation:
- 0.4292390813939416
- 0.14200020006827266
- -0.12623357837830892
- 0.8829806554361557
timestamp: 1321039121649281979
translation:
- 0.5559074688182214
- 0.42920041624931904
- -1.11171889670648
---
child_frame_id: frame_10
frame_id: frame_8
rotation:
- -0.5460827594579614
- 0.666185011028097
- -0.44577819961415
- 0.24346036156434037
timestamp: 1321039039094144821
translation:
- -0.6085596028548839
- -0.005652193231087857
- 0.3759320102468301
---
child_frame_id: world
frame_id: frame_16
rotation:
- 0.9908781375643979
- 0.08612178671433512
- 0.10176242679151302
- -0.01969677241434833
timestamp: 1321038799458805799
translation:
- -3.491413685018392
- 0.01017801352746528
- -0.2602830827709119
---
child_frame_id: odom
frame_id: frame_3
rotation:
- 0.9277036775867569
- 0.020605984324573317
- -0.11255317008537295
- -0.3553492140215808
timestamp: 1321038802145866156
translation:
- -0.7591379928030146
- -0.4958199548914316
- 0.8484711954567951
---
child_frame_id: odom
frame_id: frame_17
rotation:
- 0.9069427554477244
- 0.3471858186082809
- -0.1663500470852402
- -0.17101025563668873
timestamp: 1321039031992451191
translation:
- -1.5973699275665134
- 0.34628963593976814
- -0.28414222327438565
---
child_frame_id: frame_13
frame_id: frame_17
rotation:
- 0.2477880968400547
- -0.11436102680648154
- 0.8507801513419843
- 0.4491054984017247
timestamp: 1321038978489828110
translation:
- -0.031472478777806734
- -1.0380105375891222
- -0.7926116634142897
---
child_frame_id: frame_17
frame_id: frame_4
rotation:
- 0.09641624107034275
- -0.5165506848557967
- 0.8177090994958994
- 0.23501303588200886
timestamp: 1321038793225794792
translation:
- 0.07615022255534037
- 0.35658579617003544
- 0.43629767208319625
---
child_frame_id: frame_5
frame_id: frame_15
rotation:
- 0.035180123681151185
- 0.4746929944502952
- -0.43193867832431115
- 0.7660665102228644
timestamp: 1321039040078232527
translation:
- 0.35350985823096714
- 0.14654024068176857
- 0.5735087432915955
---
child_frame_id: frame_10
frame_id: frame_9
rotation:
- 0.2207803090447408
- 0.712609300184615
- -0.008919639170796889
- 0.6658562010416098
timestamp: 1321038727031608820
translation:
- 0.3244962302765725
- -1.1420235136336663
- -0.11340820812191743
---
child_frame_id: frame_5
frame_id: frame_13
rotation:
- 0.011136496778654427
- -0.15166553163262092
- 0.8846932902309478
- -0.44067145037366967
timestamp: 1321039054703120947
translation:
- -1.0270760337447091
- -0.1982481575558544
- 0.8917521388825224
---
child_frame_id: frame_16
frame_id: frame_19
rotation:
- -0.23474491829969843
- 0.4823743888940546
- 0.8264338707989993
- 0.17092931131827072
timestamp: 1321039053187302113
translation:
- 0.2543375605455394
- -0.8734007265013559
- -0.07609875936745802
---
child_frame_id: frame_17
frame_id: odom
rotation:
- 0.5242176578027924
- 0.7492521401663419
- 0.01559737021906643
- 0.4044425790469645
timestamp: 1321039080855653763
translation:
- -1.70615403327975
- -0.5950541201851206
- -0.516953597575873
---
child_frame_id: frame_10
frame_id: frame_12
rotation:
- 0.7059164899520689
- -0.3152749044714251
- -0.448126431273272
- -0.44885002553031683
timestamp: 1321038686240132809
translation:
- -2.448861665523677
- 1.4903875150610792
- 0.9070375976070288
---
child_frame_id: odom
frame_id: frame_18
rotation:
- -0.04235983872816441
- 0.4849133879078292
- 0.8266161962907801
- -0.28243638986582037
timestamp: 1321038745590211868
translation:
- 0.21374990510206243
- 0.5241933048493199
- -0.7147178520814392
---
child_frame_id: frame_3
frame_id: frame_2
rotation:
- -0.46722224483365155
- 0.5784000108446239
- -0.5710467103896972
- 0.34794030513961344
timestamp: 1321038866611443996
translation:
- 0.33200392659887096
- 0.23702364715585106
- 0.2747261284922927
---
child_frame_id: frame_16
frame_id: frame_9
rotation:
- -0.3006922770919409
- -0.33380069651973093
- 0.8928766871507681
- 0.03053638883161205
timestamp: 1321039086044198275
translation:
- 0.5852505047218615
- -0.26689105682554065
- 0.6808756469843731
---
child_frame_id: frame_3
frame_id: frame_18
rotation:
- 0.1316578252958707
- -0.41911129691447774
- 0.8241621807479761
- 0.3574473914602913
timestamp: 1321038919620842218
translation:
- 2.0615028266148556
- -1.3680873410246324
- -0.8926045480742701
---
child_frame_id: frame_12
frame_id: frame_10
rotation:
- -0.18767617282334523
- -0.15160180111216706
- 0.9429514961017254
- 0.22942760089720407
timestamp: 1321038917945163488
translation:
- 0.8242792011119381
- -1.334916998678086
- -0.8226606185054857
---
child_frame_id: frame_10
frame_id: frame_9
rotation:
- -0.2765180050992175
- 0.03315134630335607
- 0.7721980361896584
- 0.5710945403337867
timestamp: 1321038747465281487
translation:
- 1.0775379832436929
- 0.1412100465085372
- -2.0408030719433796
---
child_frame_id: frame_12
frame_id: frame_4
rotation:
- -0.5532206978893642
- -0.3998464009684349
- 0.7178715368600516
- -0.13685821723806726
timestamp: 1321039088880802393
translation:
- 0.18895704499147947
- -0.6536278861045832
- 0.03486150666599935
---
child_frame_id: frame_13
frame_id: odom
rotation:
- -0.17132566431973223
- -0.6002131529039125
- 0.7349273982340291
- -0.2650913185140317
timestamp: 1321038842755313396
translation:
- -0.2890543317474201
- -0.32278921820627426
- 1.1409087421204729
---
child_frame_id: frame_13
frame_id: odom
rotation:
- -0.17132566431973223
- -0.6002131529039125
- 0.7349273982340291
- -0.2650913185140317
timestamp: 1321038842755313396
translation:
- -0.2890543317474201
- -0.32278921820627426
- 1.1409087421204729
---
child_frame_id: frame_5
frame_id: frame_10
rotation:
- 0.6989915622364641
- -0.5845939327424985
- -0.3602989980166483
- -0.19961303001328848
timestamp: 1321038789162863016
translation:
- 0.32860364039516676
- 1.5728140042183973
- 0.36586724116698244
---
child_frame_id: frame_6
frame_id: world
rotation:
- -0.38215277571138556
- 0.7783684726552434
- 0.474298411742942
- -0.15212755638131464
timestamp: 1321038737144632816
translation:
- -0.5962142589383169
- 1.0833793531558202
- 1.852493213356641
---
child_frame_id: frame_16
frame_id: frame_15
rotation:
- -0.14139317088540998
- 0.55504435785742
- -0.42896675568342646
- 0.698513603701495
timestamp: 1321038821688253641
translation:
- 0.42495471798153295
- 0.08219613959662508
- -0.5617865122867679
---
child_frame_id: frame_5
frame_id: frame_0
rotation:
- 0.6992370113409607
- -0.1067844524079259
- 0.6986044819943618
- 0.1077796846919221
timestamp: 1321039115267893553
translation:
- 0.07044513937301336
- 0.09048179169334392
- 0.2824181214948248
---
child_frame_id: frame_0
frame_id: odom
rotation:
- 0.5878910926128837
- 0.7411725015319359
- 0.29999184426117825
- -0.12268773197063822
timestamp: 1321038807162629128
translation:
- 0.9272791011069886
- 0.24155585108092922
- 0.8760524919196306
---
child_frame_id: frame_0
frame_id: odom
rotation:
- 0.5878910926128837
- 0.7411725015319359
- 0.29999184426117825
- -0.12268773197063822
timestamp: 1321038807162629128
translation:
- 0.9272791011069886
- 0.24155585108092922
- 0.8760524919196306
---
child_frame_id: frame_6
frame_id: frame_2
rotation:
- 0.8563513540577323
- -0.26467005285823225
- -0.04285160544016272
- 0.4413341833970146
timestamp: 1321038703213455677
translation:
- 0.12352628583250327
- 0.8793667721399795
- -0.06699638187098053
---
child_frame_id: frame_6
frame_id: odom
rotation:
- 0.09213707435798389
- 0.32445782919664823
- 0.9389521775403071
- 0.06787256363263108
timestamp: 1321038928613653898
translation:
- 0.5027031096049687
- 1.5469775522044975
- 0.20626344184609802
---
child_frame_id: frame_12
frame_id: frame_1
rotation:
- -0.30235268510353996
- 0.5533531465624918
- 0.6408767444221214
- 0.43779007236228196
timestamp: 1321038672150197983
translation:
- 0.1569704974615807
- -0.4476234080085254
- 0.42475868022695523
---
child_frame_id: frame_7
frame_id: frame_11
rotation:
- 0.045047829839877325
- 0.6679389365732169
- -0.30563497250227784
- 0.6770639065994359
timestamp: 1321039057652221203
translation:
- 1.6749927532466393
- -0.9735073897430779
- 0.847280316920443
---
child_frame_id: frame_3
frame_id: frame_4
rotation:
- -0.15466169520088258
- 0.06155054292528293
- 0.975846694212855
- -0.14147268321847503
timestamp: 1321039118878497839
translation:
- 1.6319714699672274
- 0.25818299903153097
- -0.715606305221263
---
child_frame_id: frame_15
frame_id: frame_7
rotation:
- -0.24138283557670048
- 0.17306753221299084
- -0.7651681832109616
- 0.5712264064136858
timestamp: 1321038811654886484
translation:
- -0.3662048034253488
- 0.03254196967680456
- 0.2856816286994894
---
child_frame_id: frame_10
frame_id: odom
rotation:
- 0.4194319514953637
- -0.19935728337668288
- 0.883564352692423
- 0.060394919328365645
timestamp: 1321039066109978914
translation:
- 0.9233277182922373
- -0.23233027339047468
- 0.3321652457764169
---
child_frame_id: frame_6
frame_id: frame_15
rotation:
- -0.7664825167157457
- 0.2598049389625879
- 0.3047170874129355
- 0.5021488244517955
timestamp: 1321038845254833221
translation:
- 0.9725379714685363
- 1.2462379127792773
- 1.9847238844736719
---
child_frame_id: frame_18
frame_id: frame_6
rotation:
- -0.23172557311499417
- 0.7446982497407004
- 0.6220984792571481
- 0.0687114088314921
timestamp: 1321038858908644438
translation:
- 0.45231354183034345
- 1.9937286282565112
- -2.9895050207951583
---
child_frame_id: frame_2
frame_id: frame_7
rotation:
- -0.005496522352479621
- 0.9771767907539816
- 0.21233950503184537
- 0.002691181266462748
timestamp: 1321038875779139042
translation:
- -0.14628996910878833
- -0.7425202636423883
- 0.11501973695843948
---
child_frame_id: frame_11
frame_id: frame_16
rotation:
- -0.31115173709904803
- 0.31137126776032886
- -0.7227273831253691
- 0.5328204761402537
timestamp: 1321038980196586132
translation:
- -0.6272890242999132
- 1.5814430397540638
- 0.20525967562892328
---
child_frame_id: frame_1
frame_id: frame_15
rotation:
- 0.7665877129285312
- 0.07251973033835213
- -0.5121063952830042
- 0.38056695469904345
timestamp: 1321038816485906363
translation:
- 0.7469446899393466
- 0.19076982670915504
- -0.9193379075205308
---
child_frame_id: frame_1
frame_id: frame_14
rotation:
- 0.45460072760129083
- 0.8763417873481629
- -0.14754711251657288
- -0.05994247075176391
timestamp: 1321038953849934578
translation:
- 0.5380471887153981
- -2.8787820816573246
- 0.288901284503474
---
child_frame_id: frame_3
frame_id: frame_10
rotation:
- 0.5253026682314634
- 0.024965518942619898
- 0.11139364395592918
- 0.843223152966669
timestamp: 1321038804199267864
translation:
- 0.9893723423458703
- 0.6601532704064355
- -0.9351740180522713
---
child_frame_id: frame_3
frame_id: frame_10
rotation:
- 0.5253026682314634
- 0.024965518942619898
- 0.11139364395592918
- 0.843223152966669
timestamp: 1321038804199267864
translation:
- 0.9893723423458703
- 0.6601532704064355
- -0.9351740180522713
---
child_frame_id: frame_0
frame_id: frame_9
rotation:
- 0.27667823872939945
- 0.19470293937059685
- 0.6820262067095507
- 0.6483673117727548
timestamp: 1321038736258275747
translation:
- -1.6599196547460546
- 0.8939853785203715
- 2.86323345224316
---
child_frame_id: frame_1
frame_id: frame_3
rotation:
- 0.6497594449442055
- 0.7134906401294008
- 0.042690230645160906
- -0.2586915428865017
timestamp: 1321038671080724955
translation:
- -0.9447272742224152
- -0.9842047028391863
- 0.7165175576557568
---
child_frame_id: frame_6
frame_id: frame_14
rotation:
- 0.17174205848309546
- 0.8410547636788744
- -0.2995923484902595
- -0.416384407209435
timestamp: 1321039093871276617
translation:
- 1.14770937782556
- -2.517834804812391
- 1.48677754489889
---
child_frame_id: frame_15
frame_id: frame_12
rotation:
- -0.14212496841308278
- -0.47363944388759255
- 0.8691306511404876
- -0.008836390413776981
timestamp: 1321038787328676939
translation:
- 0.2734108256053166
- 1.3694898270484293
- 1.284618107576307
---
child_frame_id: frame_10
frame_id: frame_16
rotation:
- 0.25084127080584695
- 0.5017017805587572
- -0.36471537527269526
- 0.7432070204757066
timestamp: 1321039029070041180
translation:
- 1.2211997051887875
- -0.16669368509834626
- 1.053915330730902
---
child_frame_id: frame_7
frame_id: frame_2
rotation:
- -0.7569518602706404
- -0.20877447779414132
- -0.2817578283939369
- 0.5514069502584577
timestamp: 1321038961005342007
translation:
- 0.48379394865059755
- 0.03899882061790094
- -0.09962554433533488
---
child_frame_id: frame_17
frame_id: frame_5
rotation:
- -0.1534486322726551
- -0.695500690353774
- 0.11220159372066967
- 0.6929235955988341
timestamp: 1321038902369432688
translation:
- 1.1377937842478274
- 1.5336515024694093
- 1.371074192903898
---
child_frame_id: frame_17
frame_id: frame_5
rotation:
- -0.1534486322726551
- -0.695500690353774
- 0.11220159372066967
- 0.6929235955988341
timestamp: 1321038902369432688
translation:
- 1.1377937842478274
- 1.5336515024694093
- 1.371074192903898
---
child_frame_id: frame_3
frame_id: odom
rotation:
- -0.5744326324154858
- 0.30033967827137725
- -0.5127137441935644
- 0.5629812119308041
timestamp: 1321039072189425707
translation:
- 0.391943231179823
- 0.7099767796660059
- 0.8730250967531957
---
child_frame_id: frame_3
frame_id: odom
rotation:
- -0.5744326324154858
- 0.30033967827137725
- -0.5127137441935644
- 0.5629812119308041
timestamp: 1321039072189425707
translation:
- 0.391943231179823
- 0.7099767796660059
- 0.8730250967531957
---
child_frame_id: frame_1
frame_id: frame_0
rotation:
- 0.07014884952797372
- 0.9766501731734063
- -0.17283532755846262
- -0.10659046720047784
timestamp: 1321038954459294319
translation:
- -0.6818356785762929
- -0.36062493755820024
- 0.9922528417194884
---
child_frame_id: odom
frame_id: frame_2
rotation:
- -0.39512129458829415
- -0.38190831247736956
- 0.2434446405425719
- 0.7992245682001126
timestamp: 1321038718805606127
translation:
- 0.8687758123870373
- 0.9717638299633334
- 0.3760174447337219
---
child_frame_id: frame_6
frame_id: frame_3
rotation:
- -0.09906975364673619
- 0.2087580978099277
- 0.016139397995211396
- 0.9728025289561637
timestamp: 1321038979291546822
translation:
- -0.17881298777111193
- 0.16051994652640064
- -0.5631217361181999
---
child_frame_id: frame_10
frame_id: odom
rotation:
- 0.38469795871452234
- 0.017073793731059075
- 0.7537728206576465
- 0.5324870899527276
timestamp: 1321039085453038454
translation:
- 0.9087635853049874
- 1.0065925966186011
- 0.7771307921300161
---
child_frame_id: frame_7
frame_id: odom
rotation:
- 0.16603149946478374
- 0.9748209830894855
- 0.14571443815963986
- 0.030412080260070782
timestamp: 1321038717480110645
translation:
- 0.5265449972081887
- 1.3015106107831385
- 1.6858103472739674
---
child_frame_id: frame_12
frame_id: frame_0
rotation:
- 0.14932194934536813
- 0.7690258294125286
- 0.3802953703142009
- -0.4916072217305768
timestamp: 1321038678943827391
translation:
- -0.22891782523641044
- -0.7645991445850242
- -0.965926411689004
---
child_frame_id: frame_0
frame_id: frame_3
rotation:
- 0.7395070609109023
- 0.5928546830279006
- 0.2619772871291186
- -0.18171552686348535
timestamp: 1321038723934530258
translation:
- -0.585132069132766
- 0.05543149044800791
- -0.4080549799645645
---
child_frame_id: frame_0
frame_id: odom
rotation:
- 0.91344620470762
- -0.054472784714636985
- -0.4020686654533158
- 0.031456876692820275
timestamp: 1321038720461129665
translation:
- -1.0098233920619468
- 0.008547228428937348
- -0.763256700815572
---
child_frame_id: frame_13
frame_id: frame_17
rotation:
- -0.0008046693390458115
- -0.19122778943930688
- 0.6190405935697052
- 0.7617217527196385
timestamp: 1321038938008782387
translation:
- -1.1775030651337712
- -0.05309123876904173
- -0.45009059111463945
---
child_frame_id: frame_0
frame_id: frame_13
rotation:
- 0.6388319011877999
- 0.47518034633604767
- -0.5698674679201695
- -0.20334332909389907
timestamp: 1321038972725727320
translation:
- 0.09542153445323338
- 0.6162026305247246
- 1.1525545095540184
---
child_frame_id: frame_12
frame_id: frame_13
rotation:
- -0.34490432611096183
- 0.849292823137983
- 0.1240659666895936
- 0.3799346553101396
timestamp: 1321038850234565258
translation:
- -1.1710052335109449
- -0.5909205165152351
- 0.039224205066763496
---
child_frame_id: frame_12
frame_id: frame_13
rotation:
- -0.34490432611096183
- 0.849292823137983
- 0.1240659666895936
- 0.3799346553101396
timestamp: 1321038850234565258
translation:
- -1.1710052335109449
- -0.5909205165152351
- 0.039224205066763496
---
child_frame_id: frame_5
frame_id: frame_13
rotation:
- 0.07437603977651551
- 0.24560669135843313
- -0.7491998946099764
- 0.610610412442767
timestamp: 1321038906258550882
translation:
- -0.6024342785865966
- 0.9028806765403199
- 1.5455194561182661
