child_frame_id: frame_19
frame_id: frame_18
rotation:
- -0.4879127158134469
- -0.6267702559700323
- -0.2695200930051774
- 0.5444806217353263
timestamp: 1321038963826779604
translation:
- -0.4379703596261416
- 0.23982341922407935
- 1.1293529643591442
---
child_frame_id: frame_12
frame_id: frame_6
rotation:
- -0.15242672782920214
- -0.24666548817390482
- 0.956833387211314
- -0.019801482392367085
timestamp: 1321038672532250643
translation:
- 0.11852338547787727
- 0.04197376340564041
- 0.12586734191439947
---
child_frame_id: frame_15
frame_id: world
rotation:
- -0.523702704952347
- -0.5601291200751374
- 0.5857021739108584
- 0.26257153148340723
timestamp: 1321039117927125216
translation:
- 0.5310720764265859
- 0.45535088862392503
- 1.52541893819987
---
child_frame_id: frame_6
frame_id: frame_2
rotation:
- -0.21343861327593888
- -0.36000141807769015
- 0.8969861569225924
- 0.14233331175144812
timestamp: 1321038964739283323
translation:
- -0.21318288027006665
- -0.20884877356141718
- 0.7332320266100142
---
child_frame_id: frame_9
frame_id: frame_1
rotation:
- 0.8135961737969876
- 0.4533566304278698
- 0.3290017844046898
- -0.15584241235466087
timestamp: 1321039045849394798
translation:
- 0.8271724352714342
- -1.1405745234957931
- -0.39044365156863314
---
child_frame_id: frame_6
frame_id: frame_8
rotation:
- 0.24890393601293948
- -0.3453234632046111
- 0.4194709610112735
- 0.8017746873442182
timestamp: 1321038824124811888
translation:
- -0.9169863326709425
- -0.0828758101355328
- -1.3483227202986534
---
child_frame_id: frame_6
frame_id: frame_4
rotation:
- 0.8671507488872195
- 0.04646331818986961
- -0.14417861574611407
- -0.47445048796334444
timestamp: 1321039049853794813
translation:
- 0.8010792946282985
- -0.6934686468329677
- -0.2136198260270113
---
child_frame_id: frame_11
frame_id: world
rotation:
- 0.8834231620645978
- -0.3305234396438926
- 0.049457618483779
- -0.32843829945314
timestamp: 1321038820585304260
translation:
- 0.8313789830177906
- 0.5179459798145193
- 0.5612345934001342
---
child_frame_id: frame_6
frame_id: frame_1
rotation:
- 0.2221272117277787
- 0.1565584482369128
- -0.5282114741249855
- 0.8044511126839232
timestamp: 1321038841416663170
translation:
- 0.5231255993405732
- 0.06614114894849393
- 0.9709511011908636
---
child_frame_id: frame_9
frame_id: frame_13
rotation:
- 0.7154426002994593
- -0.4543563725457306
- -0.5107042139177543
- -0.14451082412913546
timestamp: 1321038959958912134
translation:
- 0.5749646415915803
- 0.11802516141226488
- -0.4509314526868457
---
child_frame_id: frame_5
frame_id: frame_7
rotation:
- 0.2777313190870744
- 0.7299299460137177
- 0.5453278441629696
- -0.3044423273645317
timestamp: 1321038724644459963
translation:
- -0.1157724579112216
- 0.31670798667457956
- -0.0626594394323215
---
child_frame_id: frame_11
frame_id: frame_14
rotation:
- -0.45004719992702585
- -0.3644187035185014
- 0.7143232582129769
- 0.39293613875505845
timestamp: 1321039028181138992
translation:
- -0.17344803800112052
- -0.19393717948260436
- -0.04247702779875788
---
child_frame_id: frame_17
frame_id: frame_9
rotation:
- -0.12130900287419924
- -0.27979767873918826
- 0.4869725743681538
- 0.8184467585659329
timestamp: 1321038850081817865
translation:
- 0.0827395764693527
- 1.5625095088863472
- -0.6046672559697814
---
child_frame_id: world
frame_id: frame_4
rotation:
- -0.11742003266649918
- 0.33139505946376735
- 0.6219746927603247
- 0.6996694448504263
timestamp: 1321038965229150057
translation:
- -0.14416049751770157
- -0.24795519088581774
- -1.2698657763211
---
child_frame_id: frame_2
frame_id: frame_1
rotation:
- -0.08156378118139714
- 0.7520663309919015
- 0.6383565632047654
- -0.14228310370937666
timestamp: 1321038808631155014
translation:
- -0.11998570615792037
- 0.5740515687375993
- 1.158474697902221
---
child_frame_id: frame_9
frame_id: frame_6
rotation:
- 0.4024483504081702
- 0.39305582294348
- 0.6607879619687616
- -0.49689205530088415
timestamp: 1321039041273861170
translation:
- -0.4668885754097727
- 1.165711543949774
- -0.18003358907024214
---
child_frame_id: frame_1
frame_id: frame_16
rotation:
- -0.6636748431189089
- -0.3076544795504944
- 0.22256500716382382
- 0.6444759432358766
timestamp: 1321038692648277521
translation:
- -1.1451258440471062
- -0.0877321145559698
- -0.20042967292224406
---
child_frame_id: frame_13
frame_id: frame_6
rotation:
- 0.7108390898665561
- -0.5012300400146547
- -0.29041868355510764
- 0.3989150580596233
timestamp: 1321039059175182343
translation:
- 0.8508576599622145
- 0.20128670170719815
- 0.027099617537664822
---
child_frame_id: frame_6
frame_id: frame_14
rotation:
- 0.6515527325509545
- -0.41093684090265714
- -0.6317524980872337
- 0.08659521150080188
timestamp: 1321038697029644966
translation:
- -1.9655444199230996
- 0.7736943671767964
- 1.4653601567418575
---
child_frame_id: frame_5
frame_id: frame_1
rotation:
- 0.09624579953622922
- -0.5072641587872881
- 0.8169986813325579
- 0.25677416922719937
timestamp: 1321038982397789478
translation:
- -0.3394053834563257
- -1.0043722379333555
- 0.4698644097697943
---
child_frame_id: frame_0
frame_id: frame_19
rotation:
- -0.21679179684249839
- 0.8717510112539599
- 0.360207151588246
- -0.2515994816055503
timestamp: 1321038985490039825
translation:
- 1.7582571737087032
- -0.250559158629086
- 1.3620031289717986
---
child_frame_id: frame_12
frame_id: frame_6
rotation:
- 0.004278932717503039
- 0.048475427921377136
- 0.6362140432996144
- 0.7699763079023892
timestamp: 1321038775611768484
translation:
- -0.7690183318893107
- 0.5741639747502516
- -0.6304382603260419
---
child_frame_id: frame_17
frame_id: odom
rotation:
- -0.49023692011343034
- -0.31507883411947707
- 0.24814402679976527
- 0.773833077873521
timestamp: 1321039042672843695
translation:
- -0.6170558870679921
- -0.18086469236302613
- 0.5213070985582385
---
child_frame_id: frame_6
frame_id: frame_12
rotation:
- -0.2959330605753513
- 0.2089036930083978
- 0.8378506340318375
- -0.4083983175264152
timestamp: 1321039121676551819
translation:
- 0.757312255106804
- -1.8021359908100432
- 1.6927797816645505
---
child_frame_id: frame_18
frame_id: frame_19
rotation:
- 0.05467178348979142
- -0.5839104158676878
- 0.7812956265217337
- -0.21362763470412918
timestamp: 1321038930519721270
translation:
- 2.2267773477428197
- -0.7702643351767509
- -0.3583110920356378
---
child_frame_id: frame_1
frame_id: frame_18
rotation:
- -0.5502786284568978
- 0.372066918380657
- 0.3977684183366545
- 0.6328822360315332
timestamp: 1321039090869600296
translation:
- -1.3836429168206663
- 1.1905223647354315
- 0.8744743047492343
---
child_frame_id: frame_8
frame_id: frame_3
rotation:
- -0.21711786449859338
- 0.6152235055860923
- 0.6543806723560573
- -0.3822902127138025
timestamp: 1321038967186854124
translation:
- 2.229578981230273
- -2.099535408465371
- -2.346778778888763
---
child_frame_id: odom
frame_id: frame_2
rotation:
- 0.5351018298695103
- 0.3102608228975922
- 0.47010160316206884
- 0.6296099873331613
timestamp: 1321038968685066223
translation:
- 0.7418685000083318
- -1.3641826830041768
- -0.3000493963495676
---
child_frame_id: frame_1
frame_id: frame_12
rotation:
- 0.2115407771115156
- 0.1190574387676466
- -0.4330268602509876
- 0.8680803903984445
timestamp: 1321038733544861317
translation:
- 0.8554676262299713
- 0.6787781797429135
- 0.5286805919842501
---
child_frame_id: frame_14
frame_id: frame_19
rotation:
- 0.6826390162388198
- -0.13868599492065986
- 0.4776552782601611
- 0.5353649255148974
timestamp: 1321038883761614561
translation:
- 0.13193095906292462
- 1.953936217936237
- 0.1390947885450353
---
child_frame_id: frame_7
frame_id: frame_11
rotation:
- -0.06285257957622108
- 0.6650911481697676
- 0.6455442091048638
- 0.37010267758827553
timestamp: 1321038746092443466
translation:
- -0.39758857476448206
- 0.17400518743582663
- 1.5947294577713111
---
child_frame_id: frame_7
frame_id: frame_10
rotation:
- -0.3893938951310847
- -0.5614215239613614
- 0.655495390436361
- -0.32172046870571835
timestamp: 1321039128232136726
translation:
- 0.9423832176828697
- -0.4284874508087
- -0.15829704654790475
---
child_frame_id: frame_14
frame_id: frame_15
rotation:
- 0.3160773528913394
- 0.7382049108409336
- 0.5824609631597591
- -0.1260469872489561
timestamp: 1321039022756742001
translation:
- -1.3252770940930791
- -0.2358110124714563
- 1.3116661733001473
---
child_frame_id: frame_19
frame_id: frame_6
rotation:
- -0.03840573798291231
- -0.32822887922969346
- 0.9437935759970258
- -0.00666993525855501
timestamp: 1321038788327991724
translation:
- -0.712750348020456
- -1.4136416986937004
- 0.8714963783910858
---
child_frame_id: frame_8
frame_id: frame_2
rotation:
- -0.27825844731818966
- -0.11408250863318407
- -0.2756169566073893
- 0.9130129850941389
timestamp: 1321038805108778954
translation:
- 0.3823225125122537
- 2.1623989513476123
- 1.1378084224236502
---
child_frame_id: frame_8
frame_id: frame_4
rotation:
- -0.030157576084462758
- -0.3875217455471382
- -0.6812544382815949
- 0.6203304020072188
timestamp: 1321039048033173323
translation:
- -1.5930237761612318
- 0.9291511037510407
- 0.6018132239184666
---
child_frame_id: frame_9
frame_id: frame_4
rotation:
- -0.5437353417878826
- 0.004833899664993461
- 0.6981030544199806
- -0.46581180418097695
timestamp: 1321038992153157711
translation:
- 1.2599300698426505
- 0.4440600471151851
- -1.0299336999222484
---
child_frame_id: frame_4
frame_id: frame_11
rotation:
- 0.004799031879769168
- 0.5450541063061668
- 0.8209681301243219
- -0.17001270485459916
timestamp: 1321038791077745199
translation:
- -1.4763669434251097
- -2.109014303832024
- 0.7125348222885762
---
child_frame_id: frame_10
frame_id: frame_0
rotation:
- -0.6848061301365967
- -0.12161744155905466
- 0.7180553591557336
- -0.025421707725860908
timestamp: 1321039055779483795
translation:
- -0.9447246095252826
- 0.5799051708548919
- 0.13819129556391074
---
child_frame_id: frame_14
frame_id: frame_3
rotation:
- 0.507836104964149
- 0.1797426374561681
- 0.5473578602134813
- 0.6404642438400927
timestamp: 1321038727868912458
translation:
- -2.993730982590273
- -0.023594093326650523
- 2.0195184696434163
---
child_frame_id: frame_10
frame_id: frame_9
rotation:
- 0.4397735808692039
- 0.22521057584305745
- -0.5009774177230792
- 0.7105638754041974
timestamp: 1321039042871304512
translation:
- -1.8928297945983088
- 0.8371091395504829
- -0.2727784308809935
---
child_frame_id: frame_6
frame_id: frame_18
rotation:
- 0.5787326182504737
- 0.6572236532829946
- -0.4775589121298055
- -0.07115554499617176
timestamp: 1321039049303941011
translation:
- 0.04654157033696604
- 0.03345993896643651
- -0.8685340635240418
---
child_frame_id: frame_4
frame_id: frame_8
rotation:
- 0.30399782217507887
- -0.38816785675776067
- -0.6156707282847226
- 0.6147036630981267
timestamp: 1321039084022104025
translation:
- 0.6247490894968294
- -0.73764445219065
- -0.848899757431853
---
child_frame_id: frame_14
frame_id: frame_5
rotation:
- -0.008033050917694991
- 0.4872037355340012
- 0.8341113084362348
- -0.25850786315596086
timestamp: 1321038685951314688
translation:
- 0.6330461322655563
- -1.7690697651067302
- 0.21125784010039822
---
child_frame_id: frame_8
frame_id: odom
rotation:
- 0.7532943076827723
- 0.621474596076694
- 0.1720180367974754
- -0.129332159420562
timestamp: 1321038746105046988
translation:
- -0.020601460844065334
- 0.9817862243823272
- 1.019657672966691
---
child_frame_id: frame_2
frame_id: frame_16
rotation:
- 0.7386195369868496
- 0.38059893213529616
- 0.4313517343464452
- 0.3514559911498422
timestamp: 1321038863880635262
translation:
- 1.0590609736627854
- 0.5571967495482277
- -1.6609593975606922
---
child_frame_id: frame_6
frame_id: frame_3
rotation:
- 0.7566269875851086
- 0.1699286336778266
- 0.3889537266945155
- 0.4973478255755416
timestamp: 1321039092246376514
translation:
- -0.5973870245269373
- 1.8414711994680193
- -0.7544692718561685
---
child_frame_id: frame_2
frame_id: odom
rotation:
- -0.6610170710069605
- -0.033425266019000956
- 0.5369767944503291
- 0.5230631947009723
timestamp: 1321038921336868763
translation:
- -1.220005821894911
- 0.2042401447476926
- 0.3965689571720622
---
child_frame_id: frame_5
frame_id: frame_14
rotation:
- 0.007769165150837077
- 0.1667842873221164
- -0.7788579581637076
- 0.6045683770925944
timestamp: 1321038920802183628
translation:
- 0.02964105100681111
- -1.6236627925247633
- 1.4176599920745803
---
child_frame_id: frame_14
frame_id: frame_3
rotation:
- 0.21973546886361886
- 0.9238626806566833
- -0.26060950174802655
- 0.17400217990524752
timestamp: 1321038748607933998
translation:
- 0.4544658440529967
- -0.2774457448827083
- -0.0019460709696609846
---
child_frame_id: frame_5
frame_id: frame_11
rotation:
- -0.4733065432401654
- 0.801659695328079
- 0.049331144973091164
- 0.3617859686999772
timestamp: 1321039081536782265
translation:
- 0.6658151678761779
- -0.48577372151930126
- 0.5171186235782006
---
child_frame_id: frame_9
frame_id: frame_8
rotation:
- -0.06883023452826019
- 0.595705906013091
- 0.7564377979284435
- -0.2611488660152951
timestamp: 1321038844082255363
translation:
- 0.11880482646936019
- 2.974159726760247
- 0.8623275387917092
---
child_frame_id: frame_12
frame_id: frame_1
rotation:
- 0.7917827319402974
- -0.12090339294825478
- 0.5409812744783766
- 0.25651848985699
timestamp: 1321038779538723230
translation:
- -0.11821149327447145
- 0.3490799669536101
- 1.5286833205211503
---
child_frame_id: frame_10
frame_id: frame_14
rotation:
- 0.7014366981273884
- -0.4624027050099625
- 0.4619007658278844
- 0.28428503204922817
timestamp: 1321038790529942751
translation:
- -2.296143843475571
- -0.6060320500022955
- -1.699549413041613
---
child_frame_id: frame_1
frame_id: frame_19
rotation:
- 0.5673028730041924
- 0.41729407396463786
- 0.6886521447169679
- -0.1726016503162844
timestamp: 1321038736807352781
translation:
- -1.8875785454236627
- -1.2625028402385796
- 0.9252216070013138
---
child_frame_id: frame_6
frame_id: frame_0
rotation:
- 0.32001212119852923
- 0.4113781742410101
- 0.09975133988189824
- 0.8475906501583869
timestamp: 1321038828098802805
translation:
- 0.7469561916046837
- -0.5582364814526787
- 0.2179137017211953
---
child_frame_id: frame_10
frame_id: frame_12
rotation:
- -0.16362402991927158
- 0.023240869721705002
- 0.8784988203804133
- -0.4482486602297641
timestamp: 1321039114209911346
translation:
- 0.9793569089121777
- -0.36645526093200054
- 0.40034500041845833
---
child_frame_id: frame_12
frame_id: frame_8
rotation:
- 0.6598665821955099
- -0.60957060136703
- -0.1618148650182147
- 0.40843080822801664
timestamp: 1321038808214590311
translation:
- 0.6098053212608042
- -1.7819905326552652
- 0.8251799609751057
---
child_frame_id: frame_16
frame_id: odom
rotation:
- 0.8106909080844878
- -0.04641039178140067
- -0.5800494036547512
- -0.06456792085558385
timestamp: 1321039132791226625
translation:
- 0.6190519121579956
- 0.4672670894004837
- 0.6788855811773538
---
child_frame_id: frame_1
frame_id: frame_16
rotation:
- 0.503257661163175
- 0.19056509739037905
- -0.6621343017469993
- 0.5215312421966493
timestamp: 1321038702763743639
translation:
- -1.4554988179220367
- -2.0043731818946204
- -0.9975308427831511
---
child_frame_id: frame_1
frame_id: frame_8
rotation:
- 0.9172914315749348
- -0.21852348696388887
- -0.22251661192577327
- -0.2476091125573225
timestamp: 1321038930603917599
translation:
- 1.317448261043229
- 0.05907816779778299
- 0.27593471148982085
---
child_frame_id: frame_5
frame_id: frame_17
rotation:
- 0.8650952878049191
- 0.126805204637647
- -0.48240689447483326
- -0.053048763017397596
timestamp: 1321038672113623619
translation:
- -0.4402586414662738
- -0.10197642658300157
- -0.6463616060656804
---
child_frame_id: frame_7
frame_id: frame_13
rotation:
- 0.6169521594024363
- 0.731146918341764
- 0.2544367323532173
- -0.14161979394643334
timestamp: 1321039067036804199
translation:
- -0.8649860318536573
- 0.22115205306559282
- -1.3729608985305526
---
child_frame_id: frame_0
frame_id: frame_7
rotation:
- 0.94192181026478
- -0.0257385055958305
- -0.009086880125945041
- -0.33472116946316677
timestamp: 1321038811654886484
translation:
- -1.3270678306245978
- 2.1152683399106635
- 0.25121549077763805
---
child_frame_id: frame_14
frame_id: frame_8
rotation:
- 0.503432640515631
- -0.4258817969846282
- 0.6082047139610522
- 0.4418905943513149
timestamp: 1321039069162507296
translation:
- 0.2955158700115737
- -0.33822233886601594
- -0.9114757355570299
---
child_frame_id: frame_1
frame_id: frame_0
rotation:
- 0.5001995279601779
- -0.21226793668973934
- 0.6397395345085076
- 0.5435771180510951
timestamp: 1321038852667946815
translation:
- -0.8908451636033747
- 0.1032884105101346
- -0.5808137238695603
---
child_frame_id: odom
frame_id: frame_1
rotation:
- 0.6892069190525436
- -0.502377002051204
- -0.3990946339201567
- 0.33665211081512836
timestamp: 1321038874850093603
translation:
- 1.0524779451779447
- 0.7677065039471679
- 0.28781963424666435
---
child_frame_id: frame_16
frame_id: frame_7
rotation:
- 0.9532942114904913
- 0.006733324119168032
- 0.24642181780090064
- -0.17453107573360305
timestamp: 1321038875779139042
translation:
- -0.7163706701831295
- 0.25022421345033186
- -0.4748044317624513
---
child_frame_id: frame_13
frame_id: frame_6
rotation:
- -0.23201089131364364
- -0.5038466230266281
- 0.8004270802612145
- 0.22721359105700248
timestamp: 1321038953405042410
translation:
- -0.7751340323807506
- -0.5434222956890711
- -1.316763309796718
---
child_frame_id: frame_17
frame_id: frame_0
rotation:
- 0.32425981427497097
- 0.10777081489518452
- -0.7030386209843611
- 0.6236807851037234
timestamp: 1321038822675138235
translation:
- 0.3539980411325354
- 0.4375723384911147
- 1.047501329115011
---
child_frame_id: frame_17
frame_id: world
rotation:
- 0.08938065723755076
- 0.02639819760737244
- -0.3118238915082185
- 0.9455580859786122
timestamp: 1321038953849934578
translation:
- 0.4285215078122888
- -0.09123606633460823
- -0.4556546797633118
---
child_frame_id: frame_2
frame_id: frame_14
rotation:
- 0.4466774726889747
- 0.40222422133216723
- -0.5462169204995302
- 0.5833883671499906
timestamp: 1321038805740310431
translation:
- 1.1151802047426402
- -2.2623670649833194
- 0.4087246181667321
---
child_frame_id: world
frame_id: odom
rotation:
- -0.44239684777271887
- 0.2744097864562423
- -0.6018546317228141
- 0.6056032533363713
timestamp: 1321039119862493515
translation:
- 0.0717811362832812
- 0.5457194021511742
- 1.9512820658379084
---
child_frame_id: frame_12
frame_id: frame_3
rotation:
- 0.8962706436473906
- -0.1299563589212691
- -0.42352804553577833
- -0.02083921199235251
timestamp: 1321038737233457327
translation:
- -0.012422088217294625
- 0.6475607703971834
- 0.785663364796673
---
child_frame_id: frame_17
frame_id: frame_2
rotation:
- 0.6988989479809399
- -0.6835785233132894
- 0.0065394265297011355
- -0.21028052424468888
timestamp: 1321038671082548618
translation:
- 0.13483656502835
- -0.45993783547267103
- 1.092210847913977
---
child_frame_id: frame_1
frame_id: world
rotation:
- 0.3123903405281757
- 0.6576252390526421
- 0.0436810626466713
- 0.6841295819299901
timestamp: 1321039093871276617
translation:
- 0.3133596248520326
- 0.0823234981680025
- 1.5691127443115374
---
child_frame_id: frame_0
frame_id: frame_5
rotation:
- 0.6610972976352778
- 0.16568503090120276
- 0.7283499717118742
- -0.07074710101419236
timestamp: 1321038785124114037
translation:
- -0.14383475250981462
- 0.057003229683515094
- -0.20404545107297511
---
child_frame_id: frame_14
frame_id: frame_6
rotation:
- 0.29550057404484953
- -0.016783440169375576
- 0.3281299377655087
- 0.8970665921865829
timestamp: 1321038998043666124
translation:
- 1.3746154864237763
- 0.44259094343361216
- -0.8532994694110665
---
child_frame_id: frame_7
frame_id: frame_16
rotation:
- -0.2160891517275323
- 0.44920283165443753
- 0.1783988108776211
- 0.8483490783968363
timestamp: 1321038956956759214
translation:
- -0.31351372912765146
- -0.06280938718452878
- -1.320251059706597
---
child_frame_id: frame_4
frame_id: frame_10
rotation:
- 0.47408809677702957
- -0.12787813175058108
- 0.871132690573841
- -0.0039364105344118425
timestamp: 1321038905749159336
translation:
- 0.8153813551905784
- -0.8467225654382724
- -0.6839620321003442
---
child_frame_id: frame_5
frame_id: odom
rotation:
- -0.37017480083894666
- 0.6117760139268072
- 0.5339681003522249
- 0.45119706716013713
timestamp: 1321039140601590633
translation:
- 1.3447469800024017
- -0.061483073620646644
- 1.8329243633353332
---
child_frame_id: frame_2
frame_id: frame_8
rotation:
- 0.546421113564875
- -0.33033725415461757
- 0.7694379838352265
- 0.016323424876273095
timestamp: 1321039075288922787
translation:
- -0.13025135162588325
- 0.17600977537600757
- 0.22160983190492264
---
child_frame_id: odom
frame_id: frame_7
rotation:
- 0.43943445333651704
- 0.47173457628138094
- 0.4097046619613953
- 0.6453727145832563
timestamp: 1321039040394247532
translation:
- -2.001988039220954
- -0.304916567092293
- -1.0200561428637775
---
child_frame_id: frame_17
frame_id: frame_12
rotation:
- 0.8005827573683283
- -0.03714068478474039
- 0.3253686009788713
- 0.5018197800359179
timestamp: 1321038953784262657
translation:
- 1.2569152314045462
- 1.3547659398599246
- 1.0665332955497386
---
child_frame_id: frame_8
frame_id: frame_16
rotation:
- 0.5755925731305289
- -0.2763384733322422
- -0.0748850938982034
- 0.7659781071448712
timestamp: 1321038718138222218
translation:
- -1.124253729136389
- -0.7820665499665829
- -1.7414207273166586
---
child_frame_id: frame_1
frame_id: frame_2
rotation:
- -0.41454958172549466
- 0.5793014114778252
- 0.6925911158843335
- -0.11347275068980613
timestamp: 1321038986256623268
translation:
- 0.8284040440263349
- -0.7337989903901225
- -0.6877749762767957
---
child_frame_id: frame_14
frame_id: frame_8
rotation:
- -0.25641311998595584
- 0.8519012438567678
- -0.28778067043856675
- 0.3545403620693824
timestamp: 1321039088655007124
translation:
- -1.4322701226915109
- 1.2911031316960448
- 1.3874447492190671
---
child_frame_id: frame_7
frame_id: frame_8
rotation:
- 0.17882836116164574
- 0.22448699381845408
- 0.8192720635522049
- -0.4964063786188744
timestamp: 1321038717839205265
translation:
- 0.8640062354692354
- -0.028537983877692408
- 0.3403331993142964
---
child_frame_id: frame_5
frame_id: frame_12
rotation:
- 0.7862984429752976
- -0.4644183483043489
- 0.1305219309909612
- 0.38602380996937724
timestamp: 1321038678924909830
translation:
- -0.1682660782455847
- 2.1921155314406002
- -1.2864063201341394
---
child_frame_id: frame_12
frame_id: frame_2
rotation:
- 0.25341223038724386
- -0.4639179793570022
- 0.00885175880681236
- 0.8488132870575864
timestamp: 1321038725130453587
translation:
- 1.462167076730244
- -0.538510032740851
- 1.2855548271894297
---
child_frame_id: frame_12
frame_id: frame_8
rotation:
- -0.5557095951226508
- 0.6099798945767781
- -0.5192104519250025
- -0.22255758965390693
timestamp: 1321038720843254805
translation:
- 0.6312186328699371
- -0.2618182114281735
- -0.15763047130666372
---
child_frame_id: frame_9
frame_id: frame_4
rotation:
- -0.011122206893120023
- -0.3752122226004265
- -0.170243087089202
- 0.9111033837185619
timestamp: 1321038949873334169
translation:
- 0.8480504610195446
- -2.6805202328269764
- 0.9481216358258333
---
child_frame_id: frame_12
frame_id: frame_9
rotation:
- 0.8099672407429788
- 0.09031606530946129
- 0.30154699016556136
- -0.49483885254930576
timestamp: 1321038963421754599
translation:
- -1.0836595102252444
- 1.2869045596618194
- 0.05486831879596682
---
child_frame_id: frame_5
frame_id: frame_9
rotation:
- -0.18604707959271996
- 0.7173860674937106
- 0.3141797188149744
- 0.5933252216333578
timestamp: 1321038844707712889
translation:
- 2.075980785210932
- 0.791229263021103
- 0.5601580052659205
---
child_frame_id: odom
frame_id: frame_3
rotation:
- -0.41824318969191376
- 0.5509809378810172
- 0.7058676009811714
- 0.15245842139145446
timestamp: 1321038746034135103
translation:
- 0.8674619425390079
- -0.2186935191437342
- -0.4025761822725306
---
child_frame_id: frame_10
frame_id: frame_9
rotation:
- -0.06405674964367122
- 0.4264370000327122
- 0.8069556502611931
- 0.40357254160773104
timestamp: 1321038899004150629
translation:
- -0.35859469904175983
- 1.1420200520425665
- 0.5359188821724018
---
child_frame_id: frame_16
frame_id: frame_1
rotation:
- 0.3107934213513962
- -0.6328123957322259
- -0.0565042349134374
- 0.70693931315862
timestamp: 1321038968851977110
translation:
- 0.022504653130974217
- -0.11787663905686713
- 1.1131436816155755
---
child_frame_id: frame_19
frame_id: frame_17
rotation:
- -0.687259393072839
- -0.2753139031424701
- 0.06246864969003838
- 0.6693089340323456
timestamp: 1321038732047348976
translation:
- 2.553814082828454
- 1.2095658177567832
- -0.29473756983848587
---
child_frame_id: frame_13
frame_id: frame_16
rotation:
- 0.3435495947084574
- -0.24431510007882046
- -0.2602203139108422
- 0.868659424675329
timestamp: 1321038974644816875
translation:
- -0.3451683197352585
- 1.2666107935382862
- -0.2644452371482505
---
child_frame_id: frame_8
frame_id: frame_9
rotation:
- 0.7261116746690875
- 0.12036786233979535
- 0.5460094003218785
- -0.4001838932105388
timestamp: 1321038746849400520
translation:
- -0.7867003008714348
- 0.8423992798989581
- -0.438265285153018
