child_frame_id: frame_14
frame_id: frame_2
rotation:
- 0.9459692310148318
- 0.2867430383108027
- -0.034017021126530544
- 0.14752452754431836
timestamp: 1321038948490317583
translation:
- 0.27387006578137313
- 0.21510424321244037
- 0.6933005844539689
---
child_frame_id: frame_5
frame_id: frame_18
rotation:
- -0.985481184768992
- 0.12900868404943558
- -0.10538025226558817
- -0.03284199047831714
timestamp: 1321039071833639383
translation:
- 0.11903626876801358
- -0.05449800609954839
- 0.5907906509690455
---
child_frame_id: frame_2
frame_id: frame_7
rotation:
- 0.500784888981589
- 0.26078792734720485
- 0.24927585337089722
- -0.7868072831665052
timestamp: 1321038823606186628
translation:
- 0.4275743997415423
- 0.08048661024429957
- -0.17074062813103297
---
child_frame_id: frame_14
frame_id: frame_6
rotation:
- 0.08919324548884064
- -0.6194993850219855
- 0.7538241732138551
- -0.20003547884061995
timestamp: 1321038985859376431
translation:
- 1.9331822240641507
- 0.2557477309040682
- -0.5643635372447792
---
child_frame_id: odom
frame_id: frame_2
rotation:
- 0.45126411049077486
- -0.8139711319577984
- 0.3012687002610016
- -0.20748221409401948
timestamp: 1321038721350686073
translation:
- 0.47387557487835447
- 0.30393532010923036
- 0.9816940785283383
---
child_frame_id: frame_6
frame_id: frame_3
rotation:
- 0.08840478973103444
- -0.9883526523063136
- 0.1138411837192329
- 0.04882430461451973
timestamp: 1321038935050173759
translation:
- -0.7957831778748128
- 0.5839965968218113
- -0.7674497917321972
---
child_frame_id: frame_13
frame_id: frame_14
rotation:
- -0.4916770506317107
- 0.5981141992975192
- -0.3215872222383463
- 0.5450639787894762
timestamp: 1321039108503708601
translation:
- -0.5679611354495631
- 0.3497829588077106
- 0.8586494460608977
---
child_frame_id: frame_11
frame_id: frame_4
rotation:
- 0.640644323304984
- -0.04097324182428505
- 0.136111026040592
- -0.7545659898654886
timestamp: 1321039066882416964
translation:
- 0.33813594284887394
- -0.3146513421460029
- 0.09265809552149507
---
child_frame_id: frame_14
frame_id: world
rotation:
- -0.43017707106768543
- 0.3526245113279982
- 0.3242256914706803
- 0.7651675257933238
timestamp: 1321038743634088993
translation:
- -1.6985925835187659
- -0.8272439223349177
- 1.0132809094931663
---
child_frame_id: frame_10
frame_id: frame_16
rotation:
- 0.044017981421078316
- 0.06271929529983522
- 0.46422374704611813
- 0.8823973141318865
timestamp: 1321038957478812933
translation:
- -0.7187775165143087
- -0.6592398697019272
- -0.4952375872948931
---
child_frame_id: frame_4
frame_id: odom
rotation:
- -0.6465098253756318
- 0.5537944477152428
- 0.46779744856743033
- 0.2377021297471727
timestamp: 1321038755706817389
translation:
- 0.8763295926693552
- 0.596922131032655
- 0.5313309516291806
---
child_frame_id: odom
frame_id: frame_19
rotation:
- 0.10264942216806633
- -0.7269084261394843
- 0.20636161530995634
- -0.6469019399125698
timestamp: 1321039071377737761
translation:
- -0.7535524188918467
- 1.088421310618255
- 0.09652777547869862
---
child_frame_id: frame_16
frame_id: frame_13
rotation:
- 0.8554117063967251
- -0.45630450460204824
- 0.009155137977964684
- 0.24489425286830996
timestamp: 1321038895360378504
translation:
- -0.3601816402740943
- 0.24305018902438474
- 0.3644759449395395
---
child_frame_id: frame_7
frame_id: frame_1
rotation:
- -0.04765383859899087
- 0.591214643203803
- -0.4730525146627362
- 0.6514719300932641
timestamp: 1321038929563535690
translation:
- 0.23648267816877966
- 0.2644359309809219
- -0.5434933476522813
---
child_frame_id: frame_11
frame_id: frame_1
rotation:
- -0.31807888003482887
- 0.14712826217181413
- 0.5411502067814212
- 0.7644184418540121
timestamp: 1321039052466009617
translation:
- -0.05916333533519119
- -0.4455125475367754
- 0.43751232716419186
---
child_frame_id: frame_16
frame_id: frame_12
rotation:
- 0.1749071637800049
- 0.6663211682758078
- 0.7215671140126158
- -0.0690252471310466
timestamp: 1321039131879133940
translation:
- 0.7408401043730795
- 0.16092439688859145
- 0.6637607488025532
---
child_frame_id: frame_13
frame_id: odom
rotation:
- 0.6497563199081835
- 0.4314586620289981
- 0.5125883663479316
- -0.35904500328549266
timestamp: 1321038919389836788
translation:
- 0.48653173058377197
- 0.13509789010561823
- 0.0015740378546962308
---
child_frame_id: frame_18
frame_id: frame_5
rotation:
- -0.5437225396402292
- 0.3473778980061357
- -0.0739020664508352
- 0.7604162547173193
timestamp: 1321038841092252731
translation:
- 1.0529794504191379
- 0.004793812378998119
- 0.14456479048240206
---
child_frame_id: frame_15
frame_id: frame_13
rotation:
- -0.17587860792768004
- 0.7905972244497049
- 0.5851691333830789
- -0.03999786621234182
timestamp: 1321038822468606949
translation:
- -1.5304747757480732
- 1.222223266890634
- 1.2803867226451673
---
child_frame_id: frame_10
frame_id: world
rotation:
- -0.5815057460651283
- 0.18468242803300688
- -0.7808516879973173
- 0.13421665105646013
timestamp: 1321038996811432600
translation:
- 1.5389516679761759
- 0.21318792023213995
- -0.7122347983813568
---
child_frame_id: frame_6
frame_id: frame_7
rotation:
- -0.3261971494298273
- -0.01698893823364536
- -0.8427528288596586
- 0.42787201956962806
timestamp: 1321038894731064558
translation:
- -0.258792582776213
- 0.2606758994113486
- -0.6917102694715392
---
child_frame_id: frame_19
frame_id: frame_3
rotation:
- 0.25115102529176214
- 0.7707406453369663
- 0.11586850461214425
- 0.5739830221874155
timestamp: 1321038997865666628
translation:
- -0.8532473576037459
- -1.1053851725896737
- 1.417537044497057
---
child_frame_id: frame_6
frame_id: frame_1
rotation:
- 0.5513863986929356
- 0.6527536244106632
- -0.5193693254559262
- -0.011884819335314524
timestamp: 1321039021869986773
translation:
- 0.0584219736374057
- -0.47508324640159444
- -0.2559363877563434
---
child_frame_id: frame_11
frame_id: frame_2
rotation:
- 0.8768618832737677
- 0.21918220120841597
- -0.41774524276050257
- -0.09252736074256335
timestamp: 1321038879665463686
translation:
- 0.23335435586340839
- -0.41096604736022996
- 0.4936727128225049
---
child_frame_id: frame_2
frame_id: frame_14
rotation:
- -0.03517623678567309
- -0.07704274708857316
- 0.21809857541989786
- -0.97224485541784
timestamp: 1321038892703474045
translation:
- -0.10060632416392168
- 0.4216604944995124
- -1.6748045495088533
---
child_frame_id: frame_18
frame_id: frame_5
rotation:
- 0.26433087758011165
- -0.28943320693843155
- 0.9075599681381721
- -0.1506403336165422
timestamp: 1321039049737969160
translation:
- 0.27641742485117715
- 0.3916156266876733
- 0.685271314566639
---
child_frame_id: frame_5
frame_id: frame_1
rotation:
- -0.07536059310458315
- -0.2518207670789783
- 0.26207666637985294
- -0.9285595851715187
timestamp: 1321039009396040916
translation:
- -0.17480758004838276
- -0.499866052843189
- -0.3834155095647708
---
child_frame_id: frame_1
frame_id: frame_15
rotation:
- 0.3053757214214104
- 0.834631668444454
- 0.17747542857236118
- -0.4226560292354024
timestamp: 1321039062214415789
translation:
- 0.08656949849605744
- -0.24855335129094214
- 0.200083593557163
---
child_frame_id: frame_1
frame_id: frame_3
rotation:
- -0.7744068926438413
- 0.314642716509946
- 0.09499809027742884
- -0.540619356309588
timestamp: 1321038773793814421
translation:
- 0.005908522192781333
- 0.7256232909959174
- -0.7043971909803293
---
child_frame_id: frame_1
frame_id: frame_5
rotation:
- 0.6027528229108597
- -0.07905227187736459
- 0.07806442481428066
- -0.7901555026464301
timestamp: 1321039069319557667
translation:
- -0.14728442489108823
- 0.2835249832898261
- 0.25553583566580174
---
child_frame_id: frame_11
frame_id: frame_10
rotation:
- -0.16522660429099723
- 0.3270790042535364
- 0.01809925308888207
- 0.9302644308198635
timestamp: 1321038837535455704
translation:
- 0.3377439478866098
- -0.3242885726959499
- -0.733536432111715
---
child_frame_id: frame_14
frame_id: frame_18
rotation:
- -0.22220271568359604
- -0.5629357635545096
- 0.5579732887296499
- -0.5677984574814845
timestamp: 1321038970817316294
translation:
- -0.6726993573798963
- 0.34933963272404744
- -0.06487369464017645
---
child_frame_id: frame_18
frame_id: world
rotation:
- -0.6899529194413694
- -0.4555497799330424
- 0.5595595968519105
- -0.057727155899240525
timestamp: 1321039061057927847
translation:
- -0.265995155560732
- -0.024037096381764475
- 0.7962943683598888
---
child_frame_id: frame_1
frame_id: frame_18
rotation:
- -0.7525512034735388
- -0.33289168504127264
- -0.485468549726569
- 0.29524582877204536
timestamp: 1321038836083078623
translation:
- 1.5457663518448392
- 0.378092324313312
- -1.7434562371138629
---
child_frame_id: frame_18
frame_id: world
rotation:
- -0.1413823946748514
- -0.352293610411124
- 0.0918898634513204
- 0.9205739967728815
timestamp: 1321038702017024040
translation:
- 0.8544662086946057
- 2.70567292209933
- 0.08943972728906402
---
child_frame_id: frame_6
frame_id: frame_3
rotation:
- -0.1500539243677708
- 0.0523958013745549
- 0.6247258530375563
- 0.7644972912487311
timestamp: 1321038920818569422
translation:
- -0.9532627798454547
- 2.3070357389520253
- 0.5044723305870074
---
child_frame_id: frame_11
frame_id: frame_6
rotation:
- 0.11321982595877501
- -0.8379213723429535
- -0.5240963337752775
- -0.10194154062048741
timestamp: 1321039018755555868
translation:
- -0.031715023544151344
- -0.49422830437373655
- -0.4433208194738268
---
child_frame_id: frame_16
frame_id: frame_5
rotation:
- 0.5780976590305207
- -0.47938269779096665
- -0.12086679911281141
- -0.6491429292184498
timestamp: 1321039048474447250
translation:
- 0.8863369858846507
- -1.0441126309805056
- 0.9590270152796858
---
child_frame_id: frame_2
frame_id: frame_10
rotation:
- 0.28030642550281404
- 0.07629500383977911
- 0.7923633316978419
- -0.5364398668924766
timestamp: 1321038791765409708
translation:
- 0.25975280460917116
- 0.9672117119326976
- -0.14204365401964014
---
child_frame_id: frame_15
frame_id: frame_1
rotation:
- 0.09905680631396513
- 0.3134460675472324
- 0.8977911222893348
- 0.29310478092400793
timestamp: 1321038902213624954
translation:
- -0.4155146790217823
- 0.31160536661400046
- 0.5817076596745626
---
child_frame_id: frame_0
frame_id: frame_13
rotation:
- -0.4882471269964205
- -0.668234703249754
- -0.3216687583466986
- -0.4600068850095049
timestamp: 1321039144734920502
translation:
- -0.35888354214270346
- 0.47090275966088646
- 1.5353216353144128
---
child_frame_id: frame_5
frame_id: frame_18
rotation:
- -0.045369791072401876
- 0.7452419397937946
- 0.29976320727935846
- 0.5938838714698532
timestamp: 1321039115383495092
translation:
- -0.7454838567408157
- -1.1836648175569902
- 1.1080246264954596
---
child_frame_id: frame_13
frame_id: frame_1
rotation:
- -0.7982555709346865
- -0.4433826012027856
- 0.07089717055773821
- -0.4014641996857212
timestamp: 1321038812421255350
translation:
- 0.6912524379105247
- 0.8106704027482814
- 0.9704376940381878
---
child_frame_id: frame_4
frame_id: frame_10
rotation:
- 0.06238107449606409
- 0.3238682585497555
- 0.6823896464048943
- 0.6523513801074295
timestamp: 1321038841544623613
translation:
- 0.033688851644385884
- -0.6539722680154897
- -0.7246471088771546
---
child_frame_id: frame_13
frame_id: frame_16
rotation:
- -0.2513143378374289
- 0.9018716616219612
- -0.32073470635682005
- 0.14351953769010758
timestamp: 1321039033542445421
translation:
- 0.6547047035292473
- 1.606571318249654
- 2.0121658931309483
---
child_frame_id: frame_11
frame_id: frame_17
rotation:
- 0.06032129913229995
- 0.6746106081208272
- 0.5966310116581567
- 0.430457087535568
timestamp: 1321038677129073143
translation:
- 0.3897844037294824
- 0.5331427449314704
- -0.31505563604935294
---
child_frame_id: frame_5
frame_id: frame_6
rotation:
- 0.7916888354993757
- -0.23052826443021315
- 0.5579777941021443
- -0.09352159287213582
timestamp: 1321038859369268656
translation:
- 0.004331272403179168
- 1.1879574008856348
- -0.14242540801948037
---
child_frame_id: frame_18
frame_id: odom
rotation:
- 0.15898664492280332
- -0.26975759507240665
- -0.5332390003471676
- 0.7858818328131115
timestamp: 1321039048531065464
translation:
- -0.6871836397087279
- 0.26985133353553153
- 0.18470397570681185
---
child_frame_id: world
frame_id: frame_3
rotation:
- 0.030704081720490387
- -0.5043591152582844
- 0.29360733031344716
- -0.8114640335885456
timestamp: 1321039017268326521
translation:
- -0.4233106618929204
- -1.043601515315822
- 0.8255941996890283
---
child_frame_id: frame_3
frame_id: frame_18
rotation:
- 0.1686930645694462
- -0.8095970044109184
- 0.5302197564884922
- -0.18698221905924953
timestamp: 1321038851960529089
translation:
- -0.7514528243972026
- 0.1692410129912072
- -1.3188451605091642
---
child_frame_id: frame_1
frame_id: frame_10
rotation:
- 0.5131325895897908
- -0.4986990928007754
- 0.6779080982151743
- -0.16862612702320345
timestamp: 1321038901048517704
translation:
- 0.9368920145601173
- -1.025436004288564
- 0.3632637849778012
---
child_frame_id: frame_0
frame_id: frame_17
rotation:
- -0.6069608872545268
- -0.2744372400671189
- 0.15774833850374936
- -0.7289706059278706
timestamp: 1321039073654502630
translation:
- 0.6558482716237675
- 0.5005019804809957
- -0.38973022557291226
---
child_frame_id: frame_8
frame_id: frame_19
rotation:
- 0.12240700576247379
- 0.8055818626033758
- -0.5709035686059803
- 0.10061561975010982
timestamp: 1321039130251224518
translation:
- -0.19195356013340725
- 1.005284466860847
- 0.6500816204727778
---
child_frame_id: world
frame_id: frame_3
rotation:
- -0.8446929010426032
- -0.015213607160389782
- -0.11888931219412037
- 0.5216586820243766
timestamp: 1321039145055401564
translation:
- -0.7751586442940399
- 1.1399565861757592
- 0.5515619183431834
---
child_frame_id: world
frame_id: odom
rotation:
- -0.2618367400685073
- 0.3701819669040955
- 0.8328861474831001
- 0.31734444734400497
timestamp: 1321039091896357775
translation:
- 0.4973153120590921
- -0.41280308221221185
- -0.4488241233966803
---
child_frame_id: frame_10
frame_id: frame_11
rotation:
- -0.9208266280911583
- -0.17051792042028138
- -0.2180743985011312
- -0.27467347256730096
timestamp: 1321038767029006243
translation:
- 0.3934682570201352
- 0.26103800867772853
- 0.4202810722578513
---
child_frame_id: frame_4
frame_id: world
rotation:
- 0.32390403437110477
- 0.6046471797741481
- 0.6857919198518694
- -0.2432640688124291
timestamp: 1321038787200016260
translation:
- 0.39264728914108826
- -1.0162671640683951
- 0.5426806516907985
---
child_frame_id: frame_17
frame_id: world
rotation:
- -0.34592204009704003
- -0.5557237310371265
- 0.5987882750465079
- -0.46147771192562
timestamp: 1321039039825588226
translation:
- 1.1746566443013413
- -0.5528701805111502
- 0.8203220411065584
---
child_frame_id: frame_14
frame_id: frame_12
rotation:
- 0.7575409160769843
- -0.6355223940303453
- -0.023931263467081555
- 0.1472084976625025
timestamp: 1321039026106221199
translation:
- -1.1179518090629847
- 2.112039116912798
- -0.6358272374563124
---
child_frame_id: frame_16
frame_id: world
rotation:
- -0.13020773959311194
- -0.5930373492728913
- -0.5304172713633974
- 0.5916165693731397
timestamp: 1321038839559978008
translation:
- 0.7159252039154175
- -0.5660031134673272
- 1.3511826992407072
---
child_frame_id: frame_13
frame_id: frame_8
rotation:
- -0.5047557147186601
- 0.6629210567425857
- 0.5350650362386034
- 0.1395089530500832
timestamp: 1321038706005463600
translation:
- 0.6865085202377167
- 0.9596224923822537
- 0.8294203788610762
---
child_frame_id: frame_9
frame_id: frame_13
rotation:
- 0.10515957417445206
- 0.9470414375951417
- 0.13534701444768588
- 0.2715421976733534
timestamp: 1321039129717929363
translation:
- -0.5392507028351046
- -1.5015140272875571
- -0.8409400031112277
---
child_frame_id: frame_16
frame_id: frame_12
rotation:
- 0.1807197888465688
- 0.3414494585532004
- 0.9223318883124804
- -0.007517511217957698
timestamp: 1321039124586223602
translation:
- 0.7008812016688074
- 0.19115751389448965
- 0.48033747315375597
---
child_frame_id: frame_19
frame_id: frame_9
rotation:
- -0.7519270040379641
- -0.2950336941326076
- 0.5290693792962091
- -0.26008939197145714
timestamp: 1321039086100646019
translation:
- 1.9011293035348564
- -0.2200167457334843
- 0.2819124142392401
---
child_frame_id: frame_16
frame_id: frame_18
rotation:
- -0.013739824262269468
- -0.24062294593111483
- 0.9685578298519659
- -0.06170531057472424
timestamp: 1321038827403307915
translation:
- 2.0031591041423065
- 0.94372375674902
- -0.5588279164816918
---
child_frame_id: frame_14
frame_id: frame_15
rotation:
- 0.48952519356501983
- 0.46180614956826793
- -0.16251251805977762
- -0.721588419086623
timestamp: 1321038905428530931
translation:
- -1.385785696731293
- -0.7627826130586434
- 0.8164518955855835
---
child_frame_id: frame_0
frame_id: frame_14
rotation:
- 0.5541758295512951
- 0.08955511954552434
- 0.4491301941187407
- 0.6950907129542041
timestamp: 1321039143745394707
translation:
- -1.1910685846843458
- 0.6718340678978415
- 0.4556795353012736
---
child_frame_id: frame_10
frame_id: frame_11
rotation:
- 0.2925542617310125
- 0.0586159049817255
- -0.8497903983199689
- -0.43454856868868386
timestamp: 1321039074096712589
translation:
- 1.1160853335202516
- -0.17234233832009593
- -0.9786363331575672
---
child_frame_id: frame_10
frame_id: frame_14
rotation:
- -0.24573851351209122
- 0.39155535993183976
- -0.21243251819773262
- 0.8609119631516831
timestamp: 1321038819800432444
translation:
- 0.5143412840900601
- -0.22664743802817622
- 0.7685577586306572
---
child_frame_id: frame_6
frame_id: frame_11
rotation:
- -0.14071420565503048
- -0.21125138628804432
- -0.8918572665513409
- -0.37438346680619305
timestamp: 1321039116846958637
translation:
- -0.2994830706083562
- 0.741417878258293
- 0.9600825019590514
---
child_frame_id: frame_16
frame_id: frame_18
rotation:
- -0.2365767190959903
- -0.6623528296459809
- 0.6980909033177399
- -0.1341241057631361
timestamp: 1321038896485489845
translation:
- 1.6341008319979884
- -0.8159934835038053
- -0.4684112180042205
---
child_frame_id: frame_2
frame_id: frame_9
rotation:
- 0.06438261834259909
- 0.665403050726747
- 0.7178404362650266
- 0.19441904896826792
timestamp: 1321039051028113127
translation:
- -0.16945540923402813
- 0.3323711675299898
- 0.21143008957528664
---
child_frame_id: frame_18
frame_id: frame_0
rotation:
- 0.6792441285341337
- 0.3200967510264891
- 0.5626703221691801
- -0.34578547162109313
timestamp: 1321038792892654896
translation:
- 0.04060464605313374
- -0.43466574419019144
- -1.617872932132538
---
child_frame_id: frame_11
frame_id: frame_8
rotation:
- -0.7235056580069211
- 0.4630050482323942
- 0.2980865080043878
- -0.41630556312526135
timestamp: 1321039011163198709
translation:
- -0.32288833926885013
- -0.11201999168235177
- -0.8283816397507122
---
child_frame_id: frame_12
frame_id: frame_19
rotation:
- 0.5921984972164784
- -0.11976068559128107
- 0.7967800724557623
- 0.00999170749376317
timestamp: 1321039068396900177
translation:
- -0.8912140958106238
- 0.9289951470374818
- 0.018827495357443158
---
child_frame_id: frame_17
frame_id: frame_2
rotation:
- -0.16089531696292436
- 0.199641103970929
- -0.4752241822057446
- -0.8416757708473909
timestamp: 1321038824807451725
translation:
- -0.06416723338879027
- 0.5685960159169526
- -1.0738792615076198
---
child_frame_id: frame_19
frame_id: frame_8
rotation:
- -0.1246915733333767
- 0.689967196088774
- 0.1999120140601781
- 0.6844212639123994
timestamp: 1321039037067790985
translation:
- -1.2839970315956069
- -0.75390123443257
- -0.6355371740592772
---
child_frame_id: frame_7
frame_id: frame_16
rotation:
- 0.4328017212421379
- -0.30367339310972136
- 0.41828479309064454
- -0.7385817302615788
timestamp: 1321038971683787107
translation:
- -0.4270365361861895
- 0.6046749105751813
- -0.019299843232238878
---
child_frame_id: frame_6
frame_id: frame_15
rotation:
- 0.03191095161579777
- -0.6120541525695291
- -0.00938377935436473
- -0.7901160358924494
timestamp: 1321038947156055689
translation:
- -0.2971919890076422
- -0.29408814454826704
- -0.3710004924140372
---
child_frame_id: frame_10
frame_id: frame_2
rotation:
- 0.1883949919826542
- 0.6139639946806205
- -0.39093367906836796
- 0.6593378487556598
timestamp: 1321038957370429039
translation:
- 0.4597658721983967
- 0.44465181666691544
- 0.8305588201118066
---
child_frame_id: frame_9
frame_id: frame_1
rotation:
- -0.5322366373389912
- 0.3932807444593028
- 0.7487867457002096
- 0.03705168518851609
timestamp: 1321038923094992876
translation:
- -0.07255400016605418
- -0.5199299646440672
- 0.9219145095613939
---
child_frame_id: frame_9
frame_id: frame_1
rotation:
- 0.7065231197672618
- 0.11636090553020842
- 0.3570252240571869
- 0.5998484894416601
timestamp: 1321039087939659834
translation:
- -0.4625901281632131
- -0.6702618954648533
- -0.5263764322836633
---
child_frame_id: frame_2
frame_id: frame_15
rotation:
- 0.0023616795385453205
- -0.9065263048244274
- 0.13935871286652524
- 0.3984766370558146
timestamp: 1321039052840901852
translation:
- 1.027143621659417
- 0.22966146084338263
- 0.06385749794388018
---
child_frame_id: frame_4
frame_id: frame_10
rotation:
- -0.5392778585730245
- -0.07978668927496285
- 0.7867771162391979
- -0.289474083174583
timestamp: 1321039056558413982
translation:
- -0.01849733514127408
- 0.7709905625642367
- -0.13321285776263503
---
child_frame_id: frame_14
frame_id: frame_8
rotation:
- 0.8963304443279874
- 0.022025105950970167
- -0.42850785085639803
- 0.11174815896949733
timestamp: 1321038869659749269
translation:
- 1.0266636911876603
- -0.029521617661210864
- -0.5140768569286578
---
child_frame_id: frame_16
frame_id: frame_7
rotation:
- -0.37092004213996516
- -0.44031815410363856
- -0.663411345370174
- 0.4779368497404086
timestamp: 1321038998984306097
translation:
- 0.7001960782132692
- 0.9824891197727649
- 0.07628783346127271
---
child_frame_id: frame_10
frame_id: frame_7
rotation:
- 0.014234421043797145
- -0.6200718969569969
- 0.5312661749438733
- 0.5771173842661516
timestamp: 1321038822897845268
translation:
- 0.9112661110083886
- 0.4477515809164905
- -1.2419475017754997
---
child_frame_id: frame_6
frame_id: world
rotation:
- 0.33082514354325326
- -0.8506636189439873
- 0.24860399996284444
- 0.324225512579098
timestamp: 1321038689885453463
translation:
- 0.7380405253460776
- -0.5217326828270497
- -0.18350627237785566
---
child_frame_id: frame_1
frame_id: frame_14
rotation:
- -0.3953916836371681
- -0.15015385273313944
- 0.38709993638213663
- 0.8193124411803511
timestamp: 1321039123616324425
translation:
- -0.13759328799443982
- 0.6349077147272792
- -1.6577245609348386
---
child_frame_id: world
frame_id: frame_15
rotation:
- -0.14337514462606837
- -0.8190287531013474
- -0.20898452312845414
- -0.5147435658553472
timestamp: 1321039052881644249
translation:
- 1.051353476639474
- 0.0826491203402927
- 1.319832455245955
---
child_frame_id: frame_14
frame_id: frame_5
rotation:
- 0.6227535752914156
- -0.7649100375266235
- 0.1161337901171153
- 0.1166343077563921
timestamp: 1321038934644518375
translation:
- 0.2816577854815443
- 0.013887214028634298
- -0.1325607001686258
---
child_frame_id: frame_5
frame_id: frame_13
rotation:
- -0.5034266682210055
- -0.6123154268586958
- -0.380523391191123
- 0.47627025574893705
timestamp: 1321039094309771299
translation:
- 1.1841997051198276
- 0.3836892382064848
- -1.2094920796743203
---
child_frame_id: world
frame_id: frame_7
rotation:
- 0.4407117890895443
- 0.7808018443973177
- 0.4127277044016175
- 0.1605535448459841
timestamp: 1321038807070852041
translation:
- 0.7576420538040286
- -1.2749011720113466
- 0.11207476299430824
---
child_frame_id: world
frame_id: frame_7
rotation:
- 0.9695062428885224
- -0.10115942205117325
- -0.11186658005527637
- -0.1931587031360241
timestamp: 1321039115138199091
translation:
- 0.04599952005952105
- -0.8600037922767266
- 0.5969938566729488
---
child_frame_id: frame_0
frame_id: frame_17
rotation:
- -0.3158796747326649
- 0.23880615743030145
- 0.6418820383678959
- 0.6566422915749741
timestamp: 1321038973481557131
translation:
- -0.4819852359437299
- -0.9819323501758579
- 0.03298375048677793
---
child_frame_id: frame_5
frame_id: frame_12
rotation:
- 0.5510452789013927
- 0.49311822866022037
- -0.14532889750435626
- -0.6573150117817648
timestamp: 1321039089054954052
translation:
- -0.3994912071745621
- 0.7262022641522208
- 0.38333702495595434
---
child_frame_id: frame_9
frame_id: frame_19
rotation:
- 0.37307963662344745
- -0.029954497440484455
- -0.7938601388509832
- 0.4792706884042671
timestamp: 1321038676408914804
translation:
- -0.784221071517275
- 0.6878771065455419
- 0.4607863958062387
---
child_frame_id: frame_4
frame_id: frame_2
rotation:
- 0.3472518301568779
- 0.11106667749452721
- -0.0591803504742767
- -0.9292890001074839
timestamp: 1321038970180417538
translation:
- 0.03493135180214102
- -0.02429670270114337
- -0.2502061555813553
---
child_frame_id: frame_5
frame_id: world
rotation:
- -0.7513092137374081
- 0.239902498380081
- 0.07403796027193213
- -0.6103274834570737
timestamp: 1321038775087397337
translation:
- 0.6939233770136759
- -0.6924156819551277
- 0.8940316996315629
---
child_frame_id: frame_3
frame_id: frame_14
rotation:
- 0.9191280396037921
- -0.060838141494685846
- 0.3825069640063157
- -0.07204713623895383
timestamp: 1321039014155905724
translation:
- 0.19282620161780883
- 0.9073214859909071
- -0.6329387255981669
